name,lat,long,country,state
fort hunt,38.73289,-77.05803,us,va
bessemer,33.40178,-86.95444,us,al
paducah,37.08339,-88.60005,us,ky
birmingham,33.52066,-86.80249,us,al
center point,33.64566,-86.6836,us,al
daphne,30.60353,-87.9036,us,al
decatur,34.60593,-86.98334,us,al
dothan,31.22323,-85.39049,us,al
east florence,34.80953,-87.64947,us,al
enterprise,31.31517,-85.85522,us,al
fairhope,30.52297,-87.90333,us,al
florence,34.79981,-87.67725,us,al
gadsden,34.01426,-86.00664,us,al
helena,33.29622,-86.8436,us,al
homewood,33.47177,-86.80082,us,al
hoover,33.40539,-86.81138,us,al
hueytown,33.45122,-86.99666,us,al
huntsville,34.73037,-86.5861,us,al
madison,34.69926,-86.74833,us,al
mobile,30.69436,-88.04305,us,al
montgomery,32.36681,-86.29997,us,al
mountain brook,33.50094,-86.75221,us,al
northport,33.22901,-87.57723,us,al
opelika,32.64541,-85.37828,us,al
oxford,33.61427,-85.83496,us,al
pelham,33.28567,-86.80999,us,al
phenix city,32.47098,-85.00077,us,al
prattville,32.46402,-86.4597,us,al
prichard,30.7388,-88.07889,us,al
selma,32.40736,-87.0211,us,al
talladega,33.43594,-86.1058,us,al
tillmans corner,30.59019,-88.17084,us,al
troy,31.80877,-85.96995,us,al
trussville,33.61983,-86.60888,us,al
tuscaloosa,33.20984,-87.56917,us,al
vestavia hills,33.44872,-86.78777,us,al
bella vista,36.4807,-94.27134,us,ar
benton,34.56454,-92.58683,us,ar
bentonville,36.37285,-94.20882,us,ar
blytheville,35.9273,-89.91898,us,ar
bryant,34.59593,-92.48905,us,ar
cabot,34.97453,-92.01653,us,ar
conway,35.0887,-92.4421,us,ar
el dorado,33.20763,-92.66627,us,ar
fayetteville,36.06258,-94.15743,us,ar
forrest city,35.00815,-90.78983,us,ar
fort smith,35.38592,-94.39855,us,ar
hot springs,34.5037,-93.05518,us,ar
jacksonville,34.8662,-92.11015,us,ar
jonesboro,35.8423,-90.70428,us,ar
little rock,34.74648,-92.28959,us,ar
maumelle,34.86676,-92.40432,us,ar
north little rock,34.76954,-92.26709,us,ar
paragould,36.0584,-90.49733,us,ar
pine bluff,34.22843,-92.0032,us,ar
rogers,36.33202,-94.11854,us,ar
russellville,35.27842,-93.13379,us,ar
searcy,35.25064,-91.73625,us,ar
siloam springs,36.18814,-94.5405,us,ar
springdale,36.18674,-94.12881,us,ar
texarkana,33.44179,-94.03769,us,ar
van buren,35.43676,-94.34827,us,ar
west memphis,35.14648,-90.18454,us,ar
"washington, d.c.",38.89511,-77.03637,us,dc
bear,39.62928,-75.65826,us,de
dover,39.15817,-75.52437,us,de
middletown,39.44956,-75.71632,us,de
newark,39.68372,-75.74966,us,de
wilmington,39.74595,-75.54659,us,de
allapattah,25.81454,-80.22394,us,fl
altamonte springs,28.66111,-81.36562,us,fl
apopka,28.67617,-81.51186,us,fl
aventura,25.95648,-80.13921,us,fl
bartow,27.89641,-81.84314,us,fl
bayonet point,28.32667,-82.68343,us,fl
bayshore gardens,27.42532,-82.59038,us,fl
belle glade,26.68451,-80.66756,us,fl
bellview,30.46159,-87.31497,us,fl
bloomingdale,27.89364,-82.24037,us,fl
boca del mar,26.34508,-80.14671,us,fl
boca raton,26.35869,-80.0831,us,fl
bonita springs,26.33981,-81.7787,us,fl
boynton beach,26.52535,-80.06643,us,fl
bradenton,27.49893,-82.57482,us,fl
brandon,27.9378,-82.28592,us,fl
brent,30.46881,-87.23608,us,fl
brownsville,25.82176,-80.24116,us,fl
buenaventura lakes,28.33584,-81.35313,us,fl
cantonment,30.60853,-87.33998,us,fl
cape coral,26.56285,-81.94953,us,fl
carol city,25.94065,-80.2456,us,fl
carrollwood,28.05002,-82.49287,us,fl
carrollwood village,28.06752,-82.52093,us,fl
casselberry,28.67778,-81.32785,us,fl
citrus park,28.07835,-82.56982,us,fl
clearwater,27.96585,-82.8001,us,fl
clermont,28.54944,-81.77285,us,fl
cocoa,28.38612,-80.742,us,fl
coconut creek,26.25175,-80.17894,us,fl
coconut grove,25.7126,-80.25699,us,fl
cooper city,26.05731,-80.27172,us,fl
coral gables,25.72149,-80.26838,us,fl
coral springs,26.27119,-80.2706,us,fl
coral terrace,25.74593,-80.3045,us,fl
country walk,25.63399,-80.43228,us,fl
country club,25.94815,-80.317,us,fl
crestview,30.76213,-86.57051,us,fl
cutler,25.6151,-80.31061,us,fl
cutler ridge,25.58066,-80.34672,us,fl
dania beach,26.05231,-80.14393,us,fl
davie,26.06287,-80.2331,us,fl
daytona beach,29.21081,-81.02283,us,fl
deland,29.02832,-81.30312,us,fl
debary,28.88305,-81.30868,us,fl
deerfield beach,26.31841,-80.09977,us,fl
delray beach,26.46146,-80.07282,us,fl
deltona,28.90054,-81.26367,us,fl
doral,25.81954,-80.35533,us,fl
dunedin,28.0199,-82.77323,us,fl
east lake,28.11085,-82.69482,us,fl
east pensacola heights,30.42881,-87.17997,us,fl
edgewater,28.98888,-80.90228,us,fl
egypt lake-leto,28.01769,-82.50619,us,fl
ensley,30.51881,-87.27275,us,fl
estero,26.43814,-81.80675,us,fl
eustis,28.85277,-81.68535,us,fl
ferry pass,30.5102,-87.21247,us,fl
flagami,25.76232,-80.31616,us,fl
florida ridge,27.58031,-80.38672,us,fl
fort lauderdale,26.12231,-80.14338,us,fl
fort myers,26.62168,-81.84059,us,fl
fort pierce,27.44671,-80.32561,us,fl
fort walton beach,30.42077,-86.61939,us,fl
fountainebleau,25.77288,-80.34783,us,fl
fruit cove,30.11107,-81.64176,us,fl
gainesville,29.65163,-82.32483,us,fl
glenvar heights,25.7076,-80.32561,us,fl
golden gate,26.18787,-81.69509,us,fl
golden glades,25.91176,-80.20033,us,fl
greenacres city,26.62368,-80.12532,us,fl
haines city,28.1145,-81.62009,us,fl
hallandale beach,25.9812,-80.14838,us,fl
hialeah,25.8576,-80.27811,us,fl
hialeah gardens,25.8651,-80.3245,us,fl
holiday,28.18779,-82.73955,us,fl
hollywood,26.0112,-80.14949,us,fl
homestead,25.46872,-80.47756,us,fl
immokalee,26.41869,-81.4173,us,fl
iona,26.52036,-81.96398,us,fl
ives estates,25.96231,-80.17671,us,fl
jacksonville,30.33218,-81.65565,us,fl
jacksonville beach,30.29469,-81.39314,us,fl
jasmine estates,28.29306,-82.6901,us,fl
jupiter,26.93422,-80.09421,us,fl
kendale lakes,25.70816,-80.407,us,fl
kendall,25.67927,-80.31727,us,fl
key west,24.55524,-81.78163,us,fl
keystone,28.15585,-82.62121,us,fl
kissimmee,28.30468,-81.41667,us,fl
lake butler,28.50167,-81.54091,us,fl
lake magdalene,28.07418,-82.47176,us,fl
lake worth,26.61708,-80.07231,us,fl
lake worth corridor,26.61649,-80.10102,us,fl
lakeland,28.03947,-81.9498,us,fl
lakeside,30.12996,-81.76815,us,fl
land o' lakes,28.2189,-82.45759,us,fl
largo,27.90979,-82.78842,us,fl
lauderdale lakes,26.16647,-80.20838,us,fl
lauderhill,26.14036,-80.21338,us,fl
lealman,27.82114,-82.67927,us,fl
leesburg,28.81082,-81.87786,us,fl
lehigh acres,26.62535,-81.6248,us,fl
leisure city,25.49539,-80.42922,us,fl
lutz,28.15112,-82.46148,us,fl
lynn haven,30.24548,-85.64826,us,fl
maitland,28.62778,-81.36312,us,fl
margate,26.24453,-80.20644,us,fl
meadow woods,28.38556,-81.36646,us,fl
melbourne,28.08363,-80.60811,us,fl
merritt island,28.53917,-80.672,us,fl
miami,25.77427,-80.19366,us,fl
miami beach,25.79065,-80.13005,us,fl
miami gardens,25.94204,-80.2456,us,fl
miami lakes,25.90871,-80.30866,us,fl
miramar,25.98731,-80.23227,us,fl
myrtle grove,30.42103,-87.30747,us,fl
naples,26.14234,-81.79596,us,fl
navarre,30.40159,-86.86357,us,fl
new smyrna beach,29.02582,-80.927,us,fl
norland,25.94898,-80.21227,us,fl
north fort myers,26.66729,-81.88009,us,fl
north lauderdale,26.2173,-80.22588,us,fl
north miami,25.89009,-80.18671,us,fl
north miami beach,25.93315,-80.16255,us,fl
north port,27.04422,-82.23593,us,fl
oak ridge,28.47112,-81.42452,us,fl
oakland park,26.17231,-80.13199,us,fl
ocala,29.1872,-82.14009,us,fl
ocoee,28.56917,-81.54396,us,fl
ojus,25.94843,-80.1506,us,fl
opa-locka,25.90232,-80.25033,us,fl
orlando,28.53834,-81.37924,us,fl
ormond beach,29.28581,-81.05589,us,fl
oviedo,28.67,-81.20812,us,fl
pace,30.59936,-87.16108,us,fl
palm bay,28.03446,-80.58866,us,fl
palm beach gardens,26.82339,-80.13865,us,fl
palm city,27.16783,-80.26616,us,fl
palm coast,29.58497,-81.20784,us,fl
palm harbor,28.07807,-82.76371,us,fl
palm springs,26.6359,-80.09615,us,fl
palm valley,30.17746,-81.38758,us,fl
palmetto bay,25.62177,-80.32477,us,fl
panama city,30.15946,-85.65983,us,fl
parkland,26.31008,-80.23727,us,fl
pembroke pines,26.00315,-80.22394,us,fl
pensacola,30.42131,-87.21691,us,fl
pine hills,28.55778,-81.4534,us,fl
pinecrest,25.66705,-80.30811,us,fl
pinellas park,27.8428,-82.69954,us,fl
pinewood,25.86898,-80.21699,us,fl
plant city,28.01888,-82.11469,us,fl
plantation,26.13421,-80.23184,us,fl
poinciana,28.14029,-81.45841,us,fl
pompano beach,26.23786,-80.12477,us,fl
ponte vedra beach,30.23969,-81.38564,us,fl
port charlotte,26.97617,-82.09064,us,fl
port orange,29.13832,-80.99561,us,fl
port saint lucie,27.29393,-80.35033,us,fl
princeton,25.53844,-80.40894,us,fl
punta gorda,26.92978,-82.04537,us,fl
punta gorda isles,26.91756,-82.07842,us,fl
richmond west,25.6105,-80.42971,us,fl
riverview,27.86614,-82.32648,us,fl
riviera beach,26.77534,-80.0581,us,fl
rockledge,28.35084,-80.72533,us,fl
royal palm beach,26.7084,-80.2306,us,fl
ruskin,27.72086,-82.43315,us,fl
safety harbor,27.99085,-82.69316,us,fl
saint cloud,28.2489,-81.28118,us,fl
st. petersburg,27.77086,-82.67927,us,fl
saint petersburg,27.77086,-82.67927,us,FL
san carlos park,26.4673,-81.80147,us,fl
sanford,28.80055,-81.27312,us,fl
sarasota,27.33643,-82.53065,us,fl
sebastian,27.81641,-80.47061,us,fl
seminole,27.83975,-82.79121,us,fl
south bradenton,27.4631,-82.58176,us,fl
south miami heights,25.59761,-80.38061,us,fl
southchase,28.39306,-81.3834,us,fl
spring hill,28.47688,-82.52546,us,fl
stuart,27.19755,-80.25283,us,fl
sun city center,27.71809,-82.35176,us,fl
sunny isles beach,25.95065,-80.12282,us,fl
sunrise,26.13397,-80.1131,us,fl
sunset,25.70594,-80.35228,us,fl
tallahassee,30.43826,-84.28073,us,fl
tamarac,26.21286,-80.24977,us,fl
tamiami,25.75871,-80.39839,us,fl
tampa,27.94752,-82.45843,us,fl
tarpon springs,28.14612,-82.75677,us,fl
temple terrace,28.0353,-82.38926,us,fl
the crossings,25.67066,-80.40117,us,fl
the hammocks,25.67149,-80.4445,us,fl
the villages,28.93408,-81.95994,us,fl
three lakes,25.64205,-80.39839,us,fl
titusville,28.61222,-80.80755,us,fl
town 'n' country,28.01057,-82.57732,us,fl
university park,25.74649,-80.36755,us,fl
valrico,27.93789,-82.23644,us,fl
venice,27.09978,-82.45426,us,fl
vero beach,27.63864,-80.39727,us,fl
wekiwa springs,28.69861,-81.42563,us,fl
wellington,26.65868,-80.24144,us,fl
wesley chapel,28.23973,-82.32787,us,fl
westchase,28.05502,-82.60982,us,fl
west little river,25.85704,-80.23699,us,fl
west melbourne,28.07168,-80.65339,us,fl
west palm beach,26.71534,-80.05337,us,fl
west pensacola,30.42659,-87.27969,us,fl
west and east lealman,27.81993,-82.68944,us,fl
westchester,25.75482,-80.32727,us,fl
weston,26.10037,-80.39977,us,fl
winter garden,28.56528,-81.58618,us,fl
winter haven,28.02224,-81.73286,us,fl
winter park,28.6,-81.33924,us,fl
winter springs,28.69889,-81.30812,us,fl
wright,30.45575,-86.63829,us,fl
acworth,34.06635,-84.67837,us,ga
albany,31.57851,-84.15574,us,ga
alpharetta,34.07538,-84.29409,us,ga
americus,32.07239,-84.23269,us,ga
athens,33.96095,-83.37794,us,ga
atlanta,33.749,-84.38798,us,ga
augusta,33.47097,-81.97484,us,ga
belvedere park,33.75483,-84.26742,us,ga
brookhaven,33.85844,-84.3402,us,ga
brunswick,31.14995,-81.49149,us,ga
calhoun,34.50259,-84.95105,us,ga
canton,34.23676,-84.49076,us,ga
carrollton,33.58011,-85.07661,us,ga
cartersville,34.16533,-84.80231,us,ga
columbus,32.46098,-84.98771,us,ga
conyers,33.66761,-84.01769,us,ga
dalton,34.7698,-84.97022,us,ga
decatur,33.77483,-84.29631,us,ga
douglasville,33.7515,-84.74771,us,ga
dublin,32.54044,-82.90375,us,ga
duluth,34.00288,-84.14464,us,ga
dunwoody,33.94621,-84.33465,us,ga
east point,33.67955,-84.43937,us,ga
evans,33.53375,-82.13067,us,ga
fayetteville,33.44873,-84.45493,us,ga
forest park,33.62205,-84.36909,us,ga
gainesville,34.29788,-83.82407,us,ga
griffin,33.24678,-84.26409,us,ga
hinesville,31.84688,-81.59595,us,ga
kennesaw,34.02343,-84.61549,us,ga
kingsland,30.79996,-81.68983,us,ga
la grange,33.03929,-85.03133,us,ga
lawrenceville,33.95621,-83.98796,us,ga
lithia springs,33.794,-84.66049,us,ga
mableton,33.81872,-84.58243,us,ga
macon,32.84069,-83.6324,us,ga
marietta,33.9526,-84.54993,us,ga
martinez,33.51736,-82.07567,us,ga
mcdonough,33.44734,-84.14686,us,ga
milledgeville,33.08014,-83.2321,us,ga
newnan,33.38067,-84.79966,us,ga
north decatur,33.79038,-84.30603,us,ga
north druid hills,33.81677,-84.31326,us,ga
peachtree city,33.39678,-84.59576,us,ga
pooler,32.11548,-81.24706,us,ga
redan,33.74538,-84.13158,us,ga
riverdale,33.57261,-84.41326,us,ga
rome,34.25704,-85.16467,us,ga
roswell,34.02316,-84.36159,us,ga
st. marys,30.73051,-81.54649,us,ga
sandy springs,33.92427,-84.37854,us,ga
savannah,32.08354,-81.09983,us,ga
smyrna,33.88399,-84.51438,us,ga
snellville,33.85733,-84.01991,us,ga
statesboro,32.44879,-81.78317,us,ga
stockbridge,33.54428,-84.23381,us,ga
sugar hill,34.10649,-84.03352,us,ga
suwanee,34.05149,-84.0713,us,ga
thomasville,30.83658,-83.97878,us,ga
tifton,31.45046,-83.5085,us,ga
tucker,33.85455,-84.21714,us,ga
union city,33.58706,-84.54243,us,ga
valdosta,30.83334,-83.28032,us,ga
warner robins,32.61574,-83.62664,us,ga
wilmington island,32.00355,-80.97372,us,ga
woodstock,34.10149,-84.51938,us,ga
alton,38.8906,-90.18428,us,il
belleville,38.52005,-89.98399,us,il
cahokia,38.57088,-90.19011,us,il
carbondale,37.72727,-89.21675,us,il
charleston,39.49615,-88.17615,us,il
collinsville,38.67033,-89.98455,us,il
decatur,39.84031,-88.9548,us,il
east saint louis,38.6245,-90.15094,us,il
edwardsville,38.81144,-89.95316,us,il
fairview heights,38.58894,-89.99038,us,il
godfrey,38.9556,-90.18678,us,il
granite city,38.70144,-90.14872,us,il
jacksonville,39.73394,-90.22901,us,il
marion,37.73061,-88.93313,us,il
mattoon,39.48309,-88.37283,us,il
mount vernon,38.31727,-88.90312,us,il
o'fallon,38.59227,-89.91121,us,il
quincy,39.9356,-91.40987,us,il
springfield,39.80172,-89.64371,us,il
upper alton,38.91144,-90.15066,us,il
bloomington,39.16533,-86.52639,us,in
broad ripple,39.86671,-86.14165,us,in
brownsburg,39.84338,-86.39777,us,in
carmel,39.97837,-86.11804,us,in
clarksville,38.29674,-85.75996,us,in
columbus,39.20144,-85.92138,us,in
evansville,37.97476,-87.55585,us,in
fishers,39.95559,-86.01387,us,in
greenfield,39.78504,-85.76942,us,in
greenwood,39.61366,-86.10665,us,in
indianapolis,39.76838,-86.15804,us,in
jasper,38.39144,-86.93111,us,in
jeffersonville,38.27757,-85.73718,us,in
lawrence,39.83865,-86.02526,us,in
new albany,38.28562,-85.82413,us,in
new castle,39.92894,-85.37025,us,in
plainfield,39.70421,-86.39944,us,in
richmond,39.82894,-84.89024,us,in
seymour,38.95922,-85.89025,us,in
shelbyville,39.52144,-85.77692,us,in
terre haute,39.4667,-87.41391,us,in
vincennes,38.67727,-87.52863,us,in
derby,37.54557,-97.26893,us,ks
emporia,38.4039,-96.18166,us,ks
gardner,38.81084,-94.92719,us,ks
great bend,38.36446,-98.76481,us,ks
hays,38.87918,-99.32677,us,ks
hutchinson,38.06084,-97.92977,us,ks
junction city,39.02861,-96.8314,us,ks
kansas city,39.11417,-94.62746,us,ks
lawrence,38.97167,-95.23525,us,ks
leavenworth,39.31111,-94.92246,us,ks
leawood,38.96667,-94.6169,us,ks
lenexa,38.95362,-94.73357,us,ks
manhattan,39.18361,-96.57167,us,ks
newton,38.04668,-97.34504,us,ks
olathe,38.8814,-94.81913,us,ks
overland park,38.98223,-94.67079,us,ks
pittsburg,37.41088,-94.70496,us,ks
prairie village,38.99167,-94.63357,us,ks
salina,38.84028,-97.61142,us,ks
shawnee,39.04167,-94.72024,us,ks
topeka,39.04833,-95.67804,us,ks
wichita,37.69224,-97.33754,us,ks
ashland,38.47841,-82.63794,us,ky
bowling green,36.99032,-86.4436,us,ky
burlington,39.02756,-84.72411,us,ky
covington,39.08367,-84.50855,us,ky
danville,37.64563,-84.77217,us,ky
elizabethtown,37.69395,-85.85913,us,ky
erlanger,39.01673,-84.60078,us,ky
fern creek,38.15979,-85.58774,us,ky
florence,38.99895,-84.62661,us,ky
fort thomas,39.07506,-84.44716,us,ky
frankfort,38.20091,-84.87328,us,ky
georgetown,38.2098,-84.55883,us,ky
henderson,37.83615,-87.59001,us,ky
highview,38.14285,-85.62413,us,ky
hopkinsville,36.86561,-87.49117,us,ky
independence,38.94312,-84.54411,us,ky
ironville,38.45647,-82.69238,us,ky
jeffersontown,38.19424,-85.5644,us,ky
lexington,37.98869,-84.47772,us,ky
lexington-fayette,38.0498,-84.45855,us,ky
louisville,38.25424,-85.75941,us,ky
madisonville,37.3281,-87.49889,us,ky
meads,38.41258,-82.70905,us,ky
murray,36.61033,-88.31476,us,ky
newburg,38.16007,-85.65968,us,ky
newport,39.09145,-84.49578,us,ky
nicholasville,37.88063,-84.573,us,ky
okolona,38.14118,-85.68774,us,ky
owensboro,37.77422,-87.11333,us,ky
pleasure ridge park,38.14535,-85.8583,us,ky
radcliff,37.84035,-85.94913,us,ky
richmond,37.74786,-84.29465,us,ky
saint matthews,38.25285,-85.65579,us,ky
shively,38.20007,-85.82274,us,ky
valley station,38.11118,-85.87024,us,ky
winchester,37.99008,-84.17965,us,ky
alexandria,31.31129,-92.44514,us,la
baton rouge,30.45075,-91.15455,us,la
bayou cane,29.6241,-90.7512,us,la
bossier city,32.51599,-93.73212,us,la
central,30.55435,-91.03677,us,la
chalmette,29.94296,-89.96537,us,la
estelle,29.84576,-90.10674,us,la
gretna,29.91465,-90.05396,us,la
hammond,30.50463,-90.46293,us,la
harvey,29.90354,-90.07729,us,la
houma,29.59577,-90.71953,us,la
kenner,29.99409,-90.24174,us,la
lafayette,30.22409,-92.01984,us,la
lake charles,30.21309,-93.2044,us,la
laplace,30.06698,-90.48147,us,la
marrero,29.89937,-90.10035,us,la
metairie,29.98409,-90.15285,us,la
metairie terrace,29.97854,-90.16396,us,la
monroe,32.50931,-92.1193,us,la
natchitoches,31.76072,-93.08627,us,la
new iberia,30.00354,-91.81873,us,la
new orleans,29.95465,-90.07507,us,la
opelousas,30.53353,-92.08151,us,la
prairieville,30.30297,-90.97205,us,la
ruston,32.52321,-92.63793,us,la
shenandoah,30.4013,-91.00094,us,la
shreveport,32.52515,-93.75018,us,la
slidell,30.27519,-89.78117,us,la
sulphur,30.23659,-93.37738,us,la
terrytown,29.91021,-90.03257,us,la
adelphi,39.00317,-76.97192,us,md
annapolis,38.97845,-76.49218,us,md
arbutus,39.25455,-76.69997,us,md
arnold,39.03206,-76.50274,us,md
aspen hill,39.07955,-77.07303,us,md
baltimore,39.29038,-76.61219,us,md
ballenger creek,39.3726,-77.43526,us,md
beltsville,39.03483,-76.90747,us,md
bethesda,38.98067,-77.10026,us,md
bowie,38.94278,-76.73028,us,md
calverton,39.05761,-76.93581,us,md
camp springs,38.804,-76.90664,us,md
carney,39.39427,-76.52358,us,md
catonsville,39.27205,-76.73192,us,md
chillum,38.96372,-76.99081,us,md
cloverly,39.10816,-76.99775,us,md
clinton,38.76511,-76.89831,us,md
cockeysville,39.48122,-76.64386,us,md
college park,38.98067,-76.93692,us,md
columbia,39.24038,-76.83942,us,md
crofton,39.00178,-76.68747,us,md
cumberland,39.65287,-78.76252,us,md
damascus,39.28844,-77.20387,us,md
dundalk,39.25066,-76.52052,us,md
east riverdale,38.96206,-76.92192,us,md
easton,38.77428,-76.07633,us,md
edgewood,39.41872,-76.2944,us,md
eldersburg,39.40371,-76.95026,us,md
elkton,39.60678,-75.83327,us,md
elkridge,39.21261,-76.71358,us,md
ellicott city,39.26733,-76.79831,us,md
essex,39.30927,-76.47496,us,md
fairland,39.07622,-76.95775,us,md
ferndale,39.18316,-76.64024,us,md
fort washington,38.70734,-77.02303,us,md
frederick,39.41427,-77.41054,us,md
gaithersburg,39.14344,-77.20137,us,md
germantown,39.17316,-77.27165,us,md
glassmanor,38.819,-76.99859,us,md
glen burnie,39.16261,-76.62469,us,md
green haven,39.13955,-76.54774,us,md
greenbelt,39.00455,-76.87553,us,md
hagerstown,39.64176,-77.71999,us,md
hanover,39.19289,-76.72414,us,md
hillcrest heights,38.83289,-76.95942,us,md
hunt valley,39.49983,-76.64108,us,md
hyattsville,38.95594,-76.94553,us,md
ilchester,39.25094,-76.76469,us,md
lake shore,39.10705,-76.48496,us,md
landover,38.934,-76.89664,us,md
langley park,38.98872,-76.98136,us,md
laurel,39.09928,-76.84831,us,md
lochearn,39.34066,-76.72219,us,md
maryland city,39.09205,-76.81775,us,md
middle river,39.33427,-76.43941,us,md
milford mill,39.34788,-76.76997,us,md
montgomery village,39.17677,-77.19526,us,md
north bel air,39.53983,-76.35496,us,md
north bethesda,39.04455,-77.11887,us,md
north potomac,39.08289,-77.26498,us,md
odenton,39.084,-76.70025,us,md
olney,39.15316,-77.06692,us,md
owings mills,39.41955,-76.78025,us,md
oxon hill,38.80345,-76.9897,us,md
parkville,39.37733,-76.53969,us,md
parole,38.97956,-76.53052,us,md
pasadena,39.10733,-76.57108,us,md
perry hall,39.41261,-76.46357,us,md
pikesville,39.37427,-76.72247,us,md
potomac,39.01817,-77.20859,us,md
randallstown,39.36733,-76.79525,us,md
redland,39.14539,-77.14415,us,md
reisterstown,39.46976,-76.8319,us,md
rockville,39.084,-77.15276,us,md
rosedale,39.32011,-76.51552,us,md
rossville,39.33844,-76.47968,us,md
saint charles,38.60317,-76.93858,us,md
salisbury,38.36067,-75.59937,us,md
seabrook,38.96805,-76.84658,us,md
severn,39.13705,-76.6983,us,md
severna park,39.07039,-76.54524,us,md
silver spring,38.99067,-77.02609,us,md
south bel air,39.53316,-76.33746,us,md
south gate,39.129,-76.6258,us,md
south laurel,39.06983,-76.85025,us,md
suitland,38.84872,-76.92386,us,md
takoma park,38.97789,-77.00748,us,md
towson,39.4015,-76.60191,us,md
waldorf,38.62456,-76.93914,us,md
west elkridge,39.20705,-76.72692,us,md
westminster,39.57538,-76.99581,us,md
wheaton,39.03983,-77.05526,us,md
white oak,39.03983,-76.99303,us,md
woodlawn,39.32288,-76.72803,us,md
affton,38.55061,-90.33317,us,mo
arnold,38.43283,-90.37762,us,mo
ballwin,38.59505,-90.54623,us,mo
belton,38.81195,-94.5319,us,mo
blue springs,39.01695,-94.28161,us,mo
cape girardeau,37.30588,-89.51815,us,mo
chesterfield,38.66311,-90.57707,us,mo
clayton,38.64255,-90.32373,us,mo
columbia,38.95171,-92.33407,us,mo
concord,38.5245,-90.35734,us,mo
creve coeur,38.66089,-90.42262,us,mo
east independence,39.09556,-94.35523,us,mo
farmington,37.78088,-90.42179,us,mo
ferguson,38.74422,-90.30539,us,mo
florissant,38.78922,-90.32261,us,mo
gladstone,39.20389,-94.55468,us,mo
grandview,38.88584,-94.53301,us,mo
hannibal,39.70838,-91.35848,us,mo
hazelwood,38.77144,-90.37095,us,mo
independence,39.09112,-94.41551,us,mo
jefferson city,38.5767,-92.17352,us,mo
joplin,37.08423,-94.51328,us,mo
kansas city,39.09973,-94.57857,us,mo
kirkwood,38.58339,-90.40678,us,mo
lee's summit,38.91084,-94.38217,us,mo
lemay,38.53339,-90.27928,us,mo
liberty,39.24611,-94.41912,us,mo
manchester,38.597,-90.50929,us,mo
maryland heights,38.71311,-90.42984,us,mo
mehlville,38.50839,-90.32289,us,mo
nixa,37.04339,-93.29435,us,mo
o'fallon,38.81061,-90.69985,us,mo
oakville,38.47005,-90.30456,us,mo
overland,38.70116,-90.36234,us,mo
ozark,37.02089,-93.20602,us,mo
poplar bluff,36.757,-90.39289,us,mo
raymore,38.80195,-94.45273,us,mo
raytown,39.00862,-94.46356,us,mo
rolla,37.95143,-91.77127,us,mo
saint charles,38.78394,-90.48123,us,mo
saint joseph,39.76861,-94.84663,us,mo
st. louis,38.62727,-90.19789,us,mo
saint peters,38.80033,-90.62651,us,mo
sedalia,38.70446,-93.22826,us,mo
sikeston,36.87672,-89.58786,us,mo
spanish lake,38.78783,-90.21594,us,mo
springfield,37.21533,-93.29824,us,mo
university city,38.65588,-90.30928,us,mo
warrensburg,38.76279,-93.73605,us,mo
webster groves,38.59255,-90.35734,us,mo
wentzville,38.81144,-90.85291,us,mo
wildwood,38.58283,-90.6629,us,mo
biloxi,30.39603,-88.88531,us,ms
brandon,32.2732,-89.98592,us,ms
clarksdale,34.20011,-90.57093,us,ms
clinton,32.34153,-90.32176,us,ms
columbus,33.49567,-88.42726,us,ms
gautier,30.38575,-88.61169,us,ms
greenville,33.41012,-91.06177,us,ms
greenwood,33.51623,-90.17953,us,ms
gulfport,30.36742,-89.09282,us,ms
hattiesburg,31.32712,-89.29034,us,ms
horn lake,34.95537,-90.03481,us,ms
jackson,32.29876,-90.18481,us,ms
laurel,31.69405,-89.13061,us,ms
madison,32.46181,-90.11536,us,ms
meridian,32.36431,-88.70366,us,ms
natchez,31.56044,-91.40317,us,ms
ocean springs,30.41131,-88.82781,us,ms
olive branch,34.96176,-89.82953,us,ms
oxford,34.3665,-89.51925,us,ms
pascagoula,30.36576,-88.55613,us,ms
pearl,32.27459,-90.13203,us,ms
ridgeland,32.42848,-90.13231,us,ms
southaven,34.98898,-90.01259,us,ms
starkville,33.45049,-88.81961,us,ms
tupelo,34.25807,-88.70464,us,ms
vicksburg,32.35265,-90.87788,us,ms
west gulfport,30.40409,-89.0942,us,ms
albemarle,35.35014,-80.20006,us,nc
apex,35.73265,-78.85029,us,nc
asheboro,35.70791,-79.81364,us,nc
asheville,35.60095,-82.55402,us,nc
boone,36.21679,-81.67455,us,nc
burlington,36.09569,-79.4378,us,nc
carrboro,35.91014,-79.07529,us,nc
cary,35.79154,-78.78112,us,nc
chapel hill,35.9132,-79.05584,us,nc
charlotte,35.22709,-80.84313,us,nc
clayton,35.65071,-78.45639,us,nc
clemmons,36.02153,-80.382,us,nc
concord,35.40888,-80.58158,us,nc
cornelius,35.4868,-80.86007,us,nc
durham,35.99403,-78.89862,us,nc
eden,36.48847,-79.7667,us,nc
elizabeth city,36.2946,-76.25105,us,nc
fayetteville,35.05266,-78.87836,us,nc
fuquay-varina,35.58432,-78.80001,us,nc
garner,35.71126,-78.61417,us,nc
gastonia,35.26208,-81.1873,us,nc
goldsboro,35.38488,-77.99277,us,nc
greensboro,36.07264,-79.79198,us,nc
greenville,35.61266,-77.36635,us,nc
havelock,34.87905,-76.90133,us,nc
henderson,36.32959,-78.39916,us,nc
hickory,35.73319,-81.3412,us,nc
high point,35.95569,-80.00532,us,nc
holly springs,35.65127,-78.83362,us,nc
hope mills,34.97044,-78.94531,us,nc
huntersville,35.41069,-80.84285,us,nc
indian trail,35.07681,-80.66924,us,nc
jacksonville,34.75405,-77.43024,us,nc
kannapolis,35.48736,-80.62173,us,nc
kernersville,36.11986,-80.07365,us,nc
kinston,35.26266,-77.58164,us,nc
laurinburg,34.77405,-79.46282,us,nc
lenoir,35.91402,-81.53898,us,nc
lexington,35.82403,-80.25338,us,nc
lumberton,34.61834,-79.01045,us,nc
matthews,35.11681,-80.72368,us,nc
mint hill,35.17959,-80.64729,us,nc
monroe,34.98543,-80.54951,us,nc
mooresville,35.58486,-80.81007,us,nc
morganton,35.74541,-81.68482,us,nc
morrisville,35.82348,-78.82556,us,nc
new bern,35.10849,-77.04411,us,nc
raleigh,35.7721,-78.63861,us,nc
roanoke rapids,36.46154,-77.65415,us,nc
rocky mount,35.93821,-77.79053,us,nc
salisbury,35.67097,-80.47423,us,nc
sanford,35.47988,-79.1803,us,nc
shelby,35.29235,-81.53565,us,nc
statesville,35.78264,-80.8873,us,nc
thomasville,35.88264,-80.08199,us,nc
wake forest,35.97987,-78.50972,us,nc
west raleigh,35.78682,-78.66389,us,nc
wilmington,34.22573,-77.94471,us,nc
wilson,35.72127,-77.91554,us,nc
winston-salem,36.09986,-80.24422,us,nc
atlantic city,39.36428,-74.42293,us,nj
bridgeton,39.42734,-75.23408,us,nj
camden,39.92595,-75.11962,us,nj
cherry hill,39.93484,-75.03073,us,nj
glassboro,39.70289,-75.11184,us,nj
jackson,39.7765,-74.86238,us,nj
lindenwold,39.82428,-74.99767,us,nj
maple shade,39.95261,-74.99239,us,nj
millville,39.40206,-75.03934,us,nj
mount laurel,39.934,-74.891,us,nj
ocean acres,39.74345,-74.28098,us,nj
pennsauken,39.95622,-75.05795,us,nj
pleasantville,39.38984,-74.52404,us,nj
sicklerville,39.71734,-74.96933,us,nj
south vineland,39.44595,-75.02879,us,nj
toms river,39.95373,-74.19792,us,nj
vineland,39.48623,-75.02573,us,nj
williamstown,39.68623,-74.99517,us,nj
athens,39.32924,-82.10126,us,oh
beavercreek,39.70923,-84.06327,us,oh
centerville,39.62839,-84.15938,us,oh
cincinnati,39.162,-84.45689,us,oh
columbus,39.96118,-82.99879,us,oh
dayton,39.75895,-84.19161,us,oh
fairborn,39.82089,-84.01938,us,oh
fairfield,39.34589,-84.5605,us,oh
forest park,39.29034,-84.50411,us,oh
grove city,39.88145,-83.09296,us,oh
hamilton,39.3995,-84.56134,us,oh
huber heights,39.84395,-84.12466,us,oh
kettering,39.6895,-84.16883,us,oh
lancaster,39.71368,-82.59933,us,oh
lebanon,39.43534,-84.20299,us,oh
mason,39.36006,-84.30994,us,oh
miamisburg,39.64284,-84.28661,us,oh
middletown,39.51506,-84.39828,us,oh
norwood,39.15561,-84.45966,us,oh
oxford,39.507,-84.74523,us,oh
pickerington,39.88423,-82.7535,us,oh
portsmouth,38.73174,-82.99767,us,oh
reynoldsburg,39.95479,-82.81212,us,oh
riverside,39.77978,-84.1241,us,oh
springboro,39.55228,-84.23327,us,oh
springfield,39.92423,-83.80882,us,oh
trotwood,39.79728,-84.31133,us,oh
upper arlington,39.99451,-83.06241,us,oh
vandalia,39.89061,-84.19883,us,oh
white oak,39.21311,-84.59939,us,oh
whitehall,39.96673,-82.88546,us,oh
xenia,39.68478,-83.92965,us,oh
zanesville,39.94035,-82.01319,us,oh
ada,34.77453,-96.67834,us,ok
altus,34.63813,-99.33398,us,ok
ardmore,34.17426,-97.14363,us,ok
bartlesville,36.74731,-95.98082,us,ok
bethany,35.51867,-97.63226,us,ok
bixby,35.94204,-95.88332,us,ok
broken arrow,36.0526,-95.79082,us,ok
chickasha,35.05257,-97.93643,us,ok
claremore,36.3126,-95.61609,us,ok
del city,35.44201,-97.44087,us,ok
duncan,34.5023,-97.95781,us,ok
durant,33.99399,-96.37082,us,ok
edmond,35.65283,-97.4781,us,ok
el reno,35.53227,-97.95505,us,ok
enid,36.39559,-97.87839,us,ok
jenks,36.02287,-95.96833,us,ok
lawton,34.60869,-98.39033,us,ok
mcalester,34.93343,-95.76971,us,ok
midwest city,35.44951,-97.3967,us,ok
moore,35.33951,-97.4867,us,ok
muskogee,35.74788,-95.36969,us,ok
mustang,35.38423,-97.72449,us,ok
norman,35.22257,-97.43948,us,ok
oklahoma city,35.46756,-97.51643,us,ok
owasso,36.26954,-95.85471,us,ok
ponca city,36.70698,-97.08559,us,ok
sand springs,36.13981,-96.10889,us,ok
sapulpa,35.9987,-96.11417,us,ok
shawnee,35.32729,-96.9253,us,ok
stillwater,36.11561,-97.05837,us,ok
tahlequah,35.91537,-94.96996,us,ok
tulsa,36.15398,-95.99277,us,ok
yukon,35.50672,-97.76254,us,ok
chambersburg,39.93759,-77.6611,us,pa
chester,39.84967,-75.35707,us,pa
drexel hill,39.94706,-75.29213,us,pa
hanover,39.80066,-76.98304,us,pa
philadelphia,39.95233,-75.16379,us,pa
springfield,39.93067,-75.32019,us,pa
west chester,39.96097,-75.60804,us,pa
york,39.9626,-76.72774,us,pa
aiken,33.56042,-81.71955,us,sc
anderson,34.50344,-82.65013,us,sc
charleston,32.77657,-79.93092,us,sc
columbia,34.00071,-81.03481,us,sc
conway,33.836,-79.04781,us,sc
easley,34.82984,-82.60152,us,sc
florence,34.19543,-79.76256,us,sc
goose creek,32.98101,-80.03259,us,sc
greenville,34.85262,-82.39401,us,sc
greenwood,34.1954,-82.16179,us,sc
greer,34.93873,-82.22706,us,sc
hanahan,32.91851,-80.02203,us,sc
hilton head,32.21632,-80.75261,us,sc
lexington,33.98154,-81.23621,us,sc
mauldin,34.77873,-82.31012,us,sc
mount pleasant,32.79407,-79.86259,us,sc
myrtle beach,33.68906,-78.88669,us,sc
north augusta,33.5018,-81.96512,us,sc
north charleston,32.85462,-79.97481,us,sc
rock hill,34.92487,-81.02508,us,sc
saint andrews,34.04543,-81.12926,us,sc
seven oaks,34.04876,-81.14648,us,sc
simpsonville,34.73706,-82.25428,us,sc
socastee,33.6835,-78.99837,us,sc
spartanburg,34.94957,-81.93205,us,sc
summerville,33.0185,-80.17565,us,sc
sumter,33.92044,-80.34147,us,sc
taylors,34.92039,-82.29623,us,sc
wade hampton,34.90373,-82.33317,us,sc
bartlett,35.20453,-89.87398,us,tn
brentwood,36.03312,-86.78278,us,tn
brentwood estates,36.02506,-86.77917,us,tn
bristol,36.59511,-82.18874,us,tn
chattanooga,35.04563,-85.30968,us,tn
clarksville,36.52977,-87.35945,us,tn
cleveland,35.15952,-84.87661,us,tn
collierville,35.04204,-89.66453,us,tn
columbia,35.61507,-87.03528,us,tn
cookeville,36.16284,-85.50164,us,tn
dyersburg,36.03452,-89.38563,us,tn
east brainerd,34.99591,-85.15023,us,tn
east chattanooga,35.06535,-85.24912,us,tn
east ridge,35.01424,-85.2519,us,tn
farragut,35.88452,-84.15353,us,tn
franklin,35.92506,-86.86889,us,tn
gallatin,36.38838,-86.44666,us,tn
germantown,35.08676,-89.81009,us,tn
goodlettsville,36.32311,-86.71333,us,tn
greeneville,36.16316,-82.83099,us,tn
hendersonville,36.30477,-86.62,us,tn
jackson,35.61452,-88.81395,us,tn
johnson city,36.31344,-82.35347,us,tn
kingsport,36.54843,-82.56182,us,tn
knoxville,35.96064,-83.92074,us,tn
la vergne,36.01562,-86.58194,us,tn
lebanon,36.20811,-86.2911,us,tn
maryville,35.75647,-83.97046,us,tn
memphis,35.14953,-90.04898,us,tn
morristown,36.21398,-83.29489,us,tn
mount juliet,36.20005,-86.51861,us,tn
murfreesboro,35.84562,-86.39027,us,tn
nashville,36.16589,-86.78444,us,tn
new south memphis,35.08676,-90.05676,us,tn
oak ridge,36.01036,-84.26964,us,tn
shelbyville,35.48341,-86.46027,us,tn
smyrna,35.98284,-86.5186,us,tn
spring hill,35.75118,-86.93,us,tn
springfield,36.50921,-86.885,us,tn
tullahoma,35.36202,-86.20943,us,tn
abilene,32.44874,-99.73314,us,tx
alamo,26.18369,-98.12306,us,tx
aldine,29.93245,-95.38021,us,tx
alice,27.75225,-98.06972,us,tx
allen,33.10317,-96.67055,us,tx
alvin,29.42385,-95.2441,us,tx
angleton,29.16941,-95.43188,us,tx
arlington,32.73569,-97.10807,us,tx
atascocita,29.99883,-95.1766,us,tx
austin,30.26715,-97.74306,us,tx
balch springs,32.72874,-96.62277,us,tx
baytown,29.7355,-94.97743,us,tx
beaumont,30.08605,-94.10185,us,tx
bedford,32.84402,-97.14307,us,tx
bellaire,29.70579,-95.45883,us,tx
belton,31.05601,-97.46445,us,tx
benbrook,32.67319,-97.46058,us,tx
brenham,30.16688,-96.39774,us,tx
brownsville,25.90175,-97.49748,us,tx
brownwood,31.70932,-98.99116,us,tx
brushy creek,30.51353,-97.73973,us,tx
bryan,30.67436,-96.36996,us,tx
burleson,32.54208,-97.32085,us,tx
canyon lake,29.87522,-98.26251,us,tx
carrollton,32.95373,-96.89028,us,tx
cedar hill,32.58847,-96.95612,us,tx
cedar park,30.5052,-97.82029,us,tx
channelview,29.77606,-95.11465,us,tx
cibolo,29.56162,-98.22696,us,tx
cinco ranch,29.73884,-95.758,us,tx
cleburne,32.34764,-97.38668,us,tx
cloverleaf,29.77828,-95.17188,us,tx
college station,30.62798,-96.33441,us,tx
colleyville,32.88096,-97.15501,us,tx
conroe,30.31188,-95.45605,us,tx
converse,29.51801,-98.31612,us,tx
coppell,32.95457,-97.01501,us,tx
copperas cove,31.12406,-97.90308,us,tx
corinth,33.15401,-97.06473,us,tx
corpus christi,27.80058,-97.39638,us,tx
corsicana,32.09543,-96.46887,us,tx
cypress,29.96911,-95.69717,us,tx
dallas,32.78306,-96.80667,us,tx
desoto,32.58986,-96.85695,us,tx
deer park,29.70523,-95.12382,us,tx
denison,33.75566,-96.53666,us,tx
denton,33.21484,-97.13307,us,tx
dickinson,29.46079,-95.05132,us,tx
donna,26.17035,-98.05195,us,tx
duncanville,32.6518,-96.90834,us,tx
edinburg,26.30174,-98.16334,us,tx
ennis,32.32931,-96.62527,us,tx
euless,32.83707,-97.08195,us,tx
farmers branch,32.92651,-96.89612,us,tx
flower mound,33.01457,-97.09696,us,tx
fort worth,32.72541,-97.32085,us,tx
fresno,29.53885,-95.44744,us,tx
friendswood,29.5294,-95.20104,us,tx
frisco,33.15067,-96.82361,us,tx
gainesville,33.62594,-97.13335,us,tx
galveston,29.30135,-94.7977,us,tx
garland,32.91262,-96.63888,us,tx
gatesville,31.43516,-97.74391,us,tx
georgetown,30.63269,-97.67723,us,tx
grand prairie,32.74596,-96.99778,us,tx
grapevine,32.93429,-97.07807,us,tx
greenville,33.13845,-96.11081,us,tx
groves,29.94827,-93.91712,us,tx
haltom city,32.79957,-97.26918,us,tx
harker heights,31.08351,-97.65974,us,tx
harlingen,26.19063,-97.6961,us,tx
highland village,33.09179,-97.04668,us,tx
houston,29.76328,-95.36327,us,tx
humble,29.99883,-95.26216,us,tx
huntsville,30.72353,-95.55078,us,tx
hurst,32.82346,-97.17057,us,tx
irving,41.55815,-73.0515,us,ct
west hartford,41.76204,-72.74204,us,ct
west haven,41.27065,-72.94705,us,ct
west torrington,41.81843,-73.14372,us,ct
westport,41.14149,-73.3579,us,ct
wethersfield,41.71427,-72.65259,us,ct
willimantic,41.71065,-72.20813,us,ct
wilton,41.19537,-73.4379,us,ct
windham,41.69982,-72.15702,us,ct
windsor,41.8526,-72.6437,us,ct
wolcott,41.60232,-72.98677,us,ct
ames,42.03471,-93.61994,us,ia
ankeny,41.72971,-93.60577,us,ia
bettendorf,41.52448,-90.51569,us,ia
burlington,40.80754,-91.11292,us,ia
cedar falls,42.52776,-92.44547,us,ia
cedar rapids,42.00833,-91.64407,us,ia
clinton,41.84447,-90.18874,us,ia
clive,41.60304,-93.72411,us,ia
coralville,41.6764,-91.58045,us,ia
council bluffs,41.26194,-95.86083,us,ia
davenport,41.52364,-90.57764,us,ia
des moines,41.60054,-93.60911,us,ia
dubuque,42.50056,-90.66457,us,ia
fort dodge,42.49747,-94.16802,us,ia
iowa city,41.66113,-91.53017,us,ia
johnston,41.67304,-93.69772,us,ia
marion,42.03417,-91.59768,us,ia
marshalltown,42.04943,-92.90798,us,ia
mason city,43.15357,-93.20104,us,ia
muscatine,41.42447,-91.04321,us,ia
newton,41.69971,-93.04798,us,ia
ottumwa,41.02001,-92.4113,us,ia
sioux city,42.49999,-96.40031,us,ia
urbandale,41.62666,-93.71217,us,ia
waterloo,42.49276,-92.34296,us,ia
west des moines,41.57721,-93.71133,us,ia
addison,41.9317,-87.98896,us,il
algonquin,42.16558,-88.29425,us,il
alsip,41.66892,-87.73866,us,il
arlington heights,42.08836,-87.98063,us,il
aurora,41.76058,-88.32007,us,il
bartlett,41.99503,-88.18563,us,il
batavia,41.85003,-88.31257,us,il
bellwood,41.88142,-87.88312,us,il
belvidere,42.26391,-88.84427,us,il
bensenville,41.95503,-87.94007,us,il
berwyn,41.85059,-87.79367,us,il
bloomingdale,41.95753,-88.0809,us,il
bloomington,40.4842,-88.99369,us,il
blue island,41.65726,-87.68005,us,il
bolingbrook,41.69864,-88.0684,us,il
bourbonnais,41.15376,-87.88754,us,il
bradley,41.14198,-87.86115,us,il
bridgeview,41.75003,-87.80422,us,il
brookfield,41.82392,-87.85173,us,il
buffalo grove,42.15141,-87.95979,us,il
burbank,41.73392,-87.7795,us,il
calumet city,41.61559,-87.52949,us,il
carol stream,41.91253,-88.13479,us,il
carpentersville,42.12114,-88.25786,us,il
cary,42.21197,-88.23814,us,il
champaign,40.11642,-88.24338,us,il
chicago,41.85003,-87.65005,us,il
chicago heights,41.50615,-87.6356,us,il
cicero,41.84559,-87.75394,us,il
country club hills,41.56809,-87.72033,us,il
crest hill,41.55475,-88.09867,us,il
crystal lake,42.24113,-88.3162,us,il
danville,40.12448,-87.63002,us,il
darien,41.75198,-87.97395,us,il
dekalb,41.92947,-88.75036,us,il
deerfield,42.17114,-87.84451,us,il
des plaines,42.03336,-87.8834,us,il
dixon,41.83892,-89.47955,us,il
dolton,41.63892,-87.60727,us,il
downers grove,41.80892,-88.01117,us,il
east moline,41.50087,-90.4443,us,il
east peoria,40.66615,-89.5801,us,il
elgin,42.03725,-88.28119,us,il
elk grove village,42.00392,-87.97035,us,il
elmhurst,41.89947,-87.94034,us,il
elmwood park,41.92114,-87.80923,us,il
evanston,42.04114,-87.69006,us,il
evergreen park,41.72059,-87.70172,us,il
frankfort,41.49587,-87.84866,us,il
franklin park,41.93531,-87.86562,us,il
freeport,42.29669,-89.62123,us,il
galesburg,40.94782,-90.37124,us,il
geneva,41.88753,-88.30535,us,il
glen ellyn,41.87753,-88.06701,us,il
glenview,42.06975,-87.78784,us,il
goodings grove,41.6292,-87.93089,us,il
grayslake,42.34447,-88.04175,us,il
gurnee,42.3703,-87.90202,us,il
hanover park,41.99947,-88.14507,us,il
harvey,41.61003,-87.64671,us,il
highland park,42.18169,-87.80034,us,il
hinsdale,41.80086,-87.93701,us,il
hoffman estates,42.04281,-88.0798,us,il
homer glen,41.60003,-87.93811,us,il
homewood,41.55726,-87.6656,us,il
huntley,42.16808,-88.42814,us,il
joliet,41.52519,-88.0834,us,il
kankakee,41.12003,-87.86115,us,il
la grange,41.80503,-87.86923,us,il
lake forest,42.25863,-87.84063,us,il
lake zurich,42.19697,-88.09341,us,il
lake in the hills,42.18169,-88.33036,us,il
lansing,41.56476,-87.53893,us,il
lemont,41.67364,-88.00173,us,il
libertyville,42.28308,-87.95313,us,il
lisle,41.80114,-88.07479,us,il
lockport,41.58948,-88.05784,us,il
lombard,41.88003,-88.00784,us,il
loves park,42.32002,-89.05816,us,il
machesney park,42.34724,-89.039,us,il
macomb,40.45921,-90.6718,us,il
matteson,41.50392,-87.7131,us,il
maywood,41.8792,-87.84312,us,il
mchenry,42.33335,-88.26675,us,il
melrose park,41.90059,-87.85673,us,il
mokena,41.52614,-87.88922,us,il
moline,41.5067,-90.51513,us,il
montgomery,41.73058,-88.3459,us,il
morton,40.61282,-89.45926,us,il
morton grove,42.04059,-87.78256,us,il
mount prospect,42.06642,-87.93729,us,il
mundelein,42.26308,-88.00397,us,il
naperville,41.78586,-88.14729,us,il
new lenox,41.51198,-87.96561,us,il
niles,42.01892,-87.80284,us,il
normal,40.5142,-88.99063,us,il
north aurora,41.80614,-88.3273,us,il
north chicago,42.32558,-87.84118,us,il
north peoria,40.71754,-89.58426,us,il
northbrook,42.12753,-87.82895,us,il
oak forest,41.60281,-87.74394,us,il
oak lawn,41.71087,-87.75811,us,il
oak park,41.88503,-87.7845,us,il
orland park,41.63031,-87.85394,us,il
oswego,41.68281,-88.35146,us,il
ottawa,41.34559,-88.84258,us,il
palatine,42.1103,-88.03424,us,il
palos hills,41.6967,-87.817,us,il
park forest,41.49142,-87.67449,us,il
park ridge,42.01114,-87.84062,us,il
pekin,40.56754,-89.64066,us,il
peoria,40.69365,-89.58899,us,il
plainfield,41.62697,-88.20395,us,il
prospect heights,42.0953,-87.93757,us,il
rock island,41.50948,-90.57875,us,il
rockford,42.27113,-89.094,us,il
rolling meadows,42.08419,-88.01313,us,il
romeoville,41.64753,-88.08951,us,il
roselle,41.98475,-88.07979,us,il
round lake,42.35336,-88.09341,us,il
round lake beach,42.37169,-88.09008,us,il
saint charles,41.91419,-88.30869,us,il
schaumburg,42.03336,-88.08341,us,il
shorewood,41.52003,-88.20173,us,il
skokie,42.03336,-87.73339,us,il
south elgin,41.99419,-88.2923,us,il
south holland,41.60087,-87.60699,us,il
sterling,41.78864,-89.69622,us,il
streamwood,42.02558,-88.17841,us,il
sycamore,41.98892,-88.68675,us,il
tinley park,41.57337,-87.78449,us,il
urbana,40.11059,-88.20727,us,il
vernon hills,42.21947,-87.97952,us,il
villa park,41.88975,-87.98895,us,il
wasco,41.93808,-88.40452,us,il
washington,40.70365,-89.40731,us,il
waukegan,42.36363,-87.84479,us,il
west chicago,41.88475,-88.20396,us,il
westchester,41.85059,-87.882,us,il
westmont,41.79586,-87.97562,us,il
wheaton,41.86614,-88.10701,us,il
wheeling,42.13919,-87.92896,us,il
wilmette,42.07225,-87.72284,us,il
woodridge,41.74697,-88.05034,us,il
woodstock,42.31474,-88.4487,us,il
yorkville,41.64114,-88.44729,us,il
zion,42.44613,-87.83285,us,il
anderson,40.10532,-85.68025,us,in
crawfordsville,40.04115,-86.87445,us,in
crown point,41.41698,-87.36531,us,in
dyer,41.4942,-87.52171,us,in
east chicago,41.6392,-87.45476,us,in
elkhart,41.68199,-85.97667,us,in
fort wayne,41.1306,-85.12886,us,in
frankfort,40.27948,-86.51084,us,in
gary,41.59337,-87.34643,us,in
goshen,41.58227,-85.83444,us,in
granger,41.75338,-86.11084,us,in
griffith,41.52837,-87.42365,us,in
hammond,41.58337,-87.50004,us,in
highland,41.55365,-87.45198,us,in
hobart,41.53226,-87.25504,us,in
huntington,40.8831,-85.49748,us,in
kokomo,40.48643,-86.1336,us,in
laporte,41.6106,-86.72252,us,in
lafayette,40.4167,-86.87529,us,in
lebanon,40.04837,-86.46917,us,in
logansport,40.75448,-86.35667,us,in
marion,40.55837,-85.65914,us,in
merrillville,41.48281,-87.33281,us,in
michigan city,41.70754,-86.89503,us,in
mishawaka,41.66199,-86.15862,us,in
muncie,40.19338,-85.38636,us,in
munster,41.56448,-87.51254,us,in
noblesville,40.04559,-86.0086,us,in
portage,41.57587,-87.17615,us,in
schererville,41.47892,-87.45476,us,in
south bend,41.68338,-86.25001,us,in
valparaiso,41.47309,-87.06114,us,in
west lafayette,40.42587,-86.90807,us,in
westfield,40.04282,-86.12749,us,in
abington,42.10482,-70.94532,us,ma
acton,42.48509,-71.43284,us,ma
agawam,42.06954,-72.61481,us,ma
amesbury,42.85842,-70.93005,us,ma
amherst center,42.37537,-72.51925,us,ma
arlington,42.41537,-71.15644,us,ma
ashland,42.26121,-71.4634,us,ma
attleboro,41.94454,-71.28561,us,ma
auburn,42.19454,-71.83563,us,ma
barnstable,41.70011,-70.29947,us,ma
belmont,42.39593,-71.17867,us,ma
beverly,42.55843,-70.88005,us,ma
beverly cove,42.55343,-70.85366,us,ma
billerica,42.55843,-71.26895,us,ma
boston,42.35843,-71.05977,us,ma
braintree,42.22232,-70.99949,us,ma
brockton,42.08343,-71.01838,us,ma
brookline,42.33176,-71.12116,us,ma
burlington,42.50482,-71.19561,us,ma
cambridge,42.3751,-71.10561,us,ma
canton,42.15843,-71.14477,us,ma
chelmsford,42.59981,-71.36728,us,ma
chelsea,42.39176,-71.03283,us,ma
chicopee,42.1487,-72.60787,us,ma
concord,42.46037,-71.34895,us,ma
danvers,42.57509,-70.93005,us,ma
dedham,42.24177,-71.16616,us,ma
dracut,42.67037,-71.30201,us,ma
east longmeadow,42.06454,-72.51259,us,ma
easthampton,42.26676,-72.66898,us,ma
easton,42.02454,-71.12866,us,ma
everett,42.40843,-71.05366,us,ma
fairhaven,41.6376,-70.90365,us,ma
fall river,41.70149,-71.15505,us,ma
fitchburg,42.58342,-71.8023,us,ma
framingham,42.27926,-71.41617,us,ma
framingham center,42.29732,-71.43701,us,ma
franklin,42.08343,-71.39673,us,ma
gardner,42.57509,-71.99813,us,ma
gloucester,42.61593,-70.66199,us,ma
grafton,42.20704,-71.68562,us,ma
greenfield,42.58759,-72.59953,us,ma
hanover,42.11316,-70.81199,us,ma
haverhill,42.7762,-71.07728,us,ma
holden,42.35176,-71.86341,us,ma
holyoke,42.20426,-72.6162,us,ma
jamaica plain,42.30982,-71.12033,us,ma
lawrence,42.70704,-71.16311,us,ma
leominster,42.52509,-71.75979,us,ma
lexington,42.44732,-71.2245,us,ma
longmeadow,42.0501,-72.58287,us,ma
lowell,42.63342,-71.31617,us,ma
ludlow,42.16009,-72.47592,us,ma
lynn,42.46676,-70.94949,us,ma
malden,42.4251,-71.06616,us,ma
mansfield,42.03343,-71.21894,us,ma
marblehead,42.5001,-70.85783,us,ma
marlborough,42.34593,-71.55229,us,ma
medford,42.41843,-71.10616,us,ma
melrose,42.45843,-71.06616,us,ma
methuen,42.7262,-71.19089,us,ma
milford,42.13982,-71.51617,us,ma
milton,42.24954,-71.06616,us,ma
natick,42.28343,-71.3495,us,ma
needham,42.28343,-71.23283,us,ma
new bedford,41.63622,-70.93421,us,ma
newburyport,42.81259,-70.87728,us,ma
newton,42.33704,-71.20922,us,ma
north chicopee,42.18343,-72.59953,us,ma
northampton,42.32509,-72.6412,us,ma
norton,41.96677,-71.18699,us,ma
norwood,42.19454,-71.1995,us,ma
palmer,42.15843,-72.32869,us,ma
peabody,42.52787,-70.92866,us,ma
pittsfield,42.45008,-73.24538,us,ma
quincy,42.25288,-71.00227,us,ma
randolph,42.1626,-71.04116,us,ma
reading,42.52565,-71.09533,us,ma
rockland,42.13066,-70.91616,us,ma
salem,42.51954,-70.89672,us,ma
saugus,42.46482,-71.01005,us,ma
shrewsbury,42.29593,-71.71285,us,ma
somerset,41.76955,-71.12866,us,ma
somerville,42.3876,-71.0995,us,ma
south boston,42.33343,-71.04949,us,ma
south hadley,42.25842,-72.57453,us,ma
south peabody,42.50982,-70.94949,us,ma
southbridge,42.0751,-72.03341,us,ma
springfield,42.10148,-72.58981,us,ma
stoneham,42.4801,-71.0995,us,ma
stoughton,42.1251,-71.10227,us,ma
sudbury,42.38343,-71.41617,us,ma
swansea,41.74816,-71.18977,us,ma
taunton,41.9001,-71.08977,us,ma
tewksbury,42.61065,-71.23422,us,ma
wakefield,42.50648,-71.07283,us,ma
waltham,42.37649,-71.23561,us,ma
watertown,42.37093,-71.18283,us,ma
wellesley,42.29649,-71.29256,us,ma
west springfield,42.10704,-72.62037,us,ma
westfield,42.12509,-72.74954,us,ma
westford,42.57926,-71.43784,us,ma
weymouth,42.22093,-70.93977,us,ma
wilmington,42.54648,-71.17367,us,ma
winchester,42.45232,-71.137,us,ma
winthrop,42.3751,-70.98283,us,ma
woburn,42.47926,-71.15228,us,ma
worcester,42.26259,-71.80229,us,ma
yarmouth,41.70567,-70.22863,us,ma
auburn,44.09785,-70.23117,us,me
augusta,44.31062,-69.77949,us,me
bangor,44.80118,-68.77781,us,me
biddeford,43.49258,-70.45338,us,me
brunswick,43.91452,-69.96533,us,me
lewiston,44.10035,-70.21478,us,me
portland,43.66147,-70.25533,us,me
saco,43.50092,-70.44283,us,me
south portland,43.64147,-70.24088,us,me
south portland gardens,43.63897,-70.31533,us,me
waterville,44.55201,-69.63171,us,me
west scarborough,43.57036,-70.38783,us,me
westbrook,43.67703,-70.37116,us,me
adrian,41.89755,-84.03717,us,mi
allen park,42.25754,-83.21104,us,mi
allendale,42.97225,-85.95365,us,mi
ann arbor,42.27756,-83.74088,us,mi
auburn hills,42.68753,-83.2341,us,mi
battle creek,42.3173,-85.17816,us,mi
bay city,43.59447,-83.88886,us,mi
birmingham,42.5467,-83.21132,us,mi
burton,42.99947,-83.61634,us,mi
canton,42.30865,-83.48216,us,mi
clinton,42.58698,-82.91992,us,mi
dearborn,42.32226,-83.17631,us,mi
dearborn heights,42.33698,-83.27326,us,mi
detroit,42.33143,-83.04575,us,mi
east lansing,42.73698,-84.48387,us,mi
eastpointe,42.46837,-82.95547,us,mi
farmington hills,42.48531,-83.37716,us,mi
ferndale,42.46059,-83.13465,us,mi
flint,43.01253,-83.68746,us,mi
forest hills,42.95947,-85.48975,us,mi
garden city,42.32559,-83.33104,us,mi
grand rapids,42.96336,-85.66809,us,mi
grandville,42.90975,-85.76309,us,mi
grosse pointe woods,42.44365,-82.90686,us,mi
hamtramck,42.39282,-83.04964,us,mi
haslett,42.74698,-84.40108,us,mi
hazel park,42.46254,-83.10409,us,mi
holland,42.78752,-86.10893,us,mi
holt,42.64059,-84.51525,us,mi
iron river,46.09273,-88.64235,us,mi
jackson,42.24587,-84.40135,us,mi
jenison,42.90725,-85.79198,us,mi
kalamazoo,42.29171,-85.58723,us,mi
kentwood,42.86947,-85.64475,us,mi
lansing,42.73253,-84.55553,us,mi
lincoln park,42.25059,-83.17854,us,mi
livonia,42.36837,-83.35271,us,mi
madison heights,42.48587,-83.1052,us,mi
marquette,46.54354,-87.39542,us,mi
midland,43.61558,-84.24721,us,mi
monroe,41.91643,-83.39771,us,mi
mount clemens,42.59726,-82.87798,us,mi
mount pleasant,43.59781,-84.76751,us,mi
muskegon,43.23418,-86.24839,us,mi
norton shores,43.1689,-86.26395,us,mi
novi,42.48059,-83.47549,us,mi
oak park,42.45948,-83.18271,us,mi
okemos,42.72226,-84.42747,us,mi
owosso,42.9978,-84.17664,us,mi
pontiac,42.63892,-83.29105,us,mi
port huron,42.97086,-82.42491,us,mi
portage,42.20115,-85.58,us,mi
redford,42.38337,-83.2966,us,mi
rochester hills,42.65837,-83.14993,us,mi
romulus,42.22226,-83.3966,us,mi
roseville,42.49726,-82.93714,us,mi
royal oak,42.48948,-83.14465,us,mi
saginaw,43.41947,-83.95081,us,mi
shelby,42.67087,-83.03298,us,mi
southfield,42.47337,-83.22187,us,mi
southgate,42.21393,-83.19381,us,mi
saint clair shores,42.49698,-82.88881,us,mi
sterling heights,42.58031,-83.0302,us,mi
taylor,42.24087,-83.26965,us,mi
trenton,42.13949,-83.17826,us,mi
troy,42.60559,-83.14993,us,mi
walker,43.00141,-85.76809,us,mi
warren,42.47754,-83.0277,us,mi
waterford,42.69303,-83.41181,us,mi
waverly,42.7392,-84.62081,us,mi
wayne,42.28143,-83.38632,us,mi
westland,42.3242,-83.40021,us,mi
wyandotte,42.21421,-83.14992,us,mi
wyoming,42.91336,-85.70531,us,mi
ypsilanti,42.24115,-83.61299,us,mi
albert lea,43.64801,-93.36827,us,mn
andover,45.2333,-93.29134,us,mn
anoka,45.19774,-93.38718,us,mn
apple valley,44.73191,-93.21772,us,mn
austin,43.66663,-92.97464,us,mn
blaine,45.1608,-93.23495,us,mn
bloomington,44.8408,-93.29828,us,mn
brooklyn center,45.07608,-93.33273,us,mn
brooklyn park,45.09413,-93.35634,us,mn
buffalo,45.17191,-93.87469,us,mn
burnsville,44.76774,-93.27772,us,mn
champlin,45.18885,-93.39745,us,mn
chanhassen,44.86219,-93.53079,us,mn
chaska,44.78941,-93.60218,us,mn
columbia heights,45.0408,-93.263,us,mn
coon rapids,45.11997,-93.28773,us,mn
cottage grove,44.82774,-92.94382,us,mn
crystal,45.03274,-93.36023,us,mn
duluth,46.78327,-92.10658,us,mn
eagan,44.80413,-93.16689,us,mn
eden prairie,44.85469,-93.47079,us,mn
edina,44.88969,-93.34995,us,mn
elk river,45.30385,-93.56718,us,mn
faribault,44.29496,-93.26883,us,mn
farmington,44.64024,-93.14355,us,mn
forest lake,45.27886,-92.98522,us,mn
fridley,45.08608,-93.26328,us,mn
golden valley,45.00969,-93.34912,us,mn
ham lake,45.25024,-93.24995,us,mn
hastings,44.7433,-92.85243,us,mn
hibbing,47.42715,-92.93769,us,mn
hopkins,44.92496,-93.46273,us,mn
inver grove heights,44.84802,-93.04272,us,mn
lakeville,44.64969,-93.24272,us,mn
lino lakes,45.16024,-93.08883,us,mn
mankato,44.15906,-94.00915,us,mn
maple grove,45.07246,-93.45579,us,mn
maplewood,44.95302,-92.99522,us,mn
minneapolis,44.97997,-93.26384,us,mn
minnetonka,44.9133,-93.50329,us,mn
minnetonka mills,44.94107,-93.4419,us,mn
moorhead,46.87386,-96.76951,us,mn
new brighton,45.06552,-93.20189,us,mn
new hope,45.03802,-93.38662,us,mn
northfield,44.4583,-93.1616,us,mn
oakdale,44.96302,-92.96494,us,mn
owatonna,44.08385,-93.22604,us,mn
plymouth,45.01052,-93.45551,us,mn
prior lake,44.7133,-93.42273,us,mn
ramsey,45.2611,-93.45,us,mn
red wing,44.56247,-92.5338,us,mn
richfield,44.8833,-93.283,us,mn
rochester,44.02163,-92.4699,us,mn
rosemount,44.73941,-93.12577,us,mn
roseville,45.00608,-93.15661,us,mn
saint cloud,45.5608,-94.16249,us,mn
saint louis park,44.9483,-93.34801,us,mn
saint michael,45.20996,-93.66496,us,mn
saint paul,44.94441,-93.09327,us,mn
sartell,45.62163,-94.20694,us,mn
savage,44.77913,-93.33634,us,mn
shakopee,44.79802,-93.5269,us,mn
shoreview,45.07913,-93.14717,us,mn
south saint paul,44.89274,-93.03494,us,mn
stillwater,45.05636,-92.80604,us,mn
west coon rapids,45.15969,-93.34967,us,mn
west saint paul,44.91608,-93.10161,us,mn
white bear lake,45.08469,-93.00994,us,mn
willmar,45.12191,-95.04334,us,mn
winona,44.04996,-91.63932,us,mn
woodbury,44.92386,-92.95938,us,mn
kirksville,40.19475,-92.58325,us,mo
fargo,46.87719,-96.7898,us,nd
grand forks,47.92526,-97.03285,us,nd
jamestown,46.91054,-98.70844,us,nd
west fargo,46.87497,-96.90036,us,nd
bellevue,41.13667,-95.89084,us,ne
columbus,41.42973,-97.36838,us,ne
fremont,41.43333,-96.49808,us,ne
grand island,40.92501,-98.34201,us,ne
hastings,40.58612,-98.38839,us,ne
kearney,40.69946,-99.08148,us,ne
la vista,41.18389,-96.03113,us,ne
lincoln,40.8,-96.66696,us,ne
norfolk,42.02834,-97.417,us,ne
omaha,41.25626,-95.94043,us,ne
papillion,41.15444,-96.04224,us,ne
bedford,42.94647,-71.5159,us,nh
concord,43.20814,-71.53757,us,nh
derry,42.88064,-71.32729,us,nh
derry village,42.89175,-71.31201,us,nh
dover,43.19786,-70.87367,us,nh
east concord,43.24202,-71.53813,us,nh
keene,42.93369,-72.27814,us,nh
laconia,43.52785,-71.47035,us,nh
manchester,42.99564,-71.45479,us,nh
merrimack,42.86509,-71.4934,us,nh
nashua,42.76537,-71.46757,us,nh
portsmouth,43.07176,-70.76255,us,nh
rochester,43.30453,-70.97562,us,nh
salem,42.78842,-71.20089,us,nh
asbury park,40.22039,-74.01208,us,nj
avenel,40.58038,-74.28515,us,nj
bayonne,40.66871,-74.11431,us,nj
belleville,40.79371,-74.15014,us,nj
bergenfield,40.9276,-73.99736,us,nj
bloomfield,40.80677,-74.18542,us,nj
carteret,40.57733,-74.2282,us,nj
cliffside park,40.82149,-73.98764,us,nj
clifton,40.85843,-74.16376,us,nj
colonia,40.57455,-74.30209,us,nj
cranford,40.65844,-74.29959,us,nj
dover,40.88399,-74.5621,us,nj
dumont,40.94065,-73.99681,us,nj
east brunswick,40.42788,-74.41598,us,nj
east orange,40.76732,-74.20487,us,nj
edison,40.51872,-74.4121,us,nj
elizabeth,40.66399,-74.2107,us,nj
elmwood park,40.90399,-74.11848,us,nj
englewood,40.89288,-73.97264,us,nj
ewing,40.26983,-74.79988,us,nj
fair lawn,40.94038,-74.13181,us,nj
fords,40.52927,-74.31598,us,nj
fort lee,40.85093,-73.97014,us,nj
garfield,40.88149,-74.1132,us,nj
hackensack,40.88593,-74.04347,us,nj
hawthorne,40.94926,-74.15375,us,nj
hillside,40.70121,-74.23015,us,nj
hoboken,40.74399,-74.03236,us,nj
hopatcong,40.93288,-74.65933,us,nj
hopatcong hills,40.94399,-74.67072,us,nj
irvington,40.73232,-74.23487,us,nj
iselin,40.57538,-74.32237,us,nj
jersey city,40.72816,-74.07764,us,nj
kearny,40.76843,-74.14542,us,nj
lakewood,40.09789,-74.21764,us,nj
linden,40.62205,-74.24459,us,nj
livingston,40.79593,-74.31487,us,nj
lodi,40.88232,-74.0832,us,nj
long branch,40.30428,-73.99236,us,nj
lyndhurst,40.81204,-74.12431,us,nj
madison,40.75982,-74.4171,us,nj
mahwah,41.08871,-74.14376,us,nj
maplewood,40.73121,-74.27348,us,nj
marlboro,40.31539,-74.24626,us,nj
montclair,40.82593,-74.20903,us,nj
morristown,40.79677,-74.48154,us,nj
new brunswick,40.48622,-74.45182,us,nj
new milford,40.9351,-74.01903,us,nj
newark,40.73566,-74.17237,us,nj
north arlington,40.78843,-74.1332,us,nj
north bergen,40.80427,-74.01208,us,nj
north plainfield,40.6301,-74.42737,us,nj
nutley,40.82232,-74.15987,us,nj
old bridge,40.41483,-74.36543,us,nj
orange,40.77066,-74.23265,us,nj
palisades park,40.84816,-73.99764,us,nj
paramus,40.94454,-74.07542,us,nj
parsippany,40.85788,-74.42599,us,nj
passaic,40.85677,-74.12848,us,nj
paterson,40.91677,-74.17181,us,nj
perth amboy,40.50677,-74.26542,us,nj
piscataway,40.49927,-74.39904,us,nj
plainfield,40.63371,-74.40737,us,nj
point pleasant,40.08317,-74.06819,us,nj
rahway,40.60816,-74.27765,us,nj
ridgewood,40.97926,-74.11653,us,nj
roselle,40.65223,-74.25882,us,nj
rutherford,40.82649,-74.10681,us,nj
sayreville,40.45927,-74.36098,us,nj
sayreville junction,40.46538,-74.33043,us,nj
scotch plains,40.65538,-74.38987,us,nj
secaucus,40.78955,-74.05653,us,nj
somerset,40.4976,-74.48849,us,nj
south old bridge,40.40816,-74.35432,us,nj
south orange,40.74899,-74.26126,us,nj
south plainfield,40.57927,-74.41154,us,nj
south river,40.44649,-74.38598,us,nj
summit,40.71562,-74.36468,us,nj
teaneck,40.8976,-74.01597,us,nj
tinton falls,40.30428,-74.10042,us,nj
trenton,40.21705,-74.74294,us,nj
union,40.6976,-74.2632,us,nj
union city,40.77955,-74.02375,us,nj
voorhees,40.48122,-74.48321,us,nj
wayne,40.92538,-74.27654,us,nj
west milford,41.13121,-74.36737,us,nj
west new york,40.78788,-74.01431,us,nj
west orange,40.79871,-74.23904,us,nj
westfield,40.65899,-74.34737,us,nj
willingboro,40.02789,-74.86905,us,nj
woodbridge,40.5576,-74.28459,us,nj
wyckoff,41.00954,-74.17292,us,nj
albany,42.65258,-73.75623,us,ny
amherst,42.97839,-78.79976,us,ny
amsterdam,42.93869,-74.18819,us,ny
auburn,42.93173,-76.56605,us,ny
baldwin,40.65649,-73.6093,us,ny
batavia,42.99812,-78.18752,us,ny
bay shore,40.7251,-73.24539,us,ny
beacon,41.50482,-73.96958,us,ny
bellmore,40.66871,-73.52707,us,ny
bensonhurst,40.60177,-73.99403,us,ny
bethpage,40.74427,-73.48207,us,ny
binghamton,42.09869,-75.91797,us,ny
brentwood,40.78121,-73.24623,us,ny
brighton,43.14756,-77.55055,us,ny
the bronx,40.84985,-73.86641,us,ny
brooklyn,40.6501,-73.94958,us,ny
buffalo,42.88645,-78.87837,us,ny
centereach,40.85843,-73.09955,us,ny
central islip,40.79065,-73.20178,us,ny
cheektowaga,42.90339,-78.75475,us,ny
cohoes,42.77424,-73.70012,us,ny
commack,40.84288,-73.29289,us,ny
coney island,40.57788,-73.99403,us,ny
copiague,40.68149,-73.39984,us,ny
coram,40.86871,-73.00149,us,ny
cortland,42.60118,-76.18048,us,ny
deer park,40.76177,-73.32929,us,ny
depew,42.90395,-78.69225,us,ny
dix hills,40.80482,-73.33623,us,ny
east meadow,40.71399,-73.55902,us,ny
east massapequa,40.67343,-73.43651,us,ny
east new york,40.66677,-73.88236,us,ny
east northport,40.87676,-73.32456,us,ny
east patchogue,40.76704,-72.99622,us,ny
east setauket,40.94149,-73.10594,us,ny
eastchester,40.8876,-73.83291,us,ny
eggertsville,42.96339,-78.80392,us,ny
elmira,42.0898,-76.80773,us,ny
elmont,40.70094,-73.71291,us,ny
farmingville,40.83121,-73.02955,us,ny
floral park,40.72371,-73.70485,us,ny
franklin square,40.70732,-73.67596,us,ny
freeport,40.6576,-73.58318,us,ny
garden city,40.72677,-73.6343,us,ny
glen cove,40.86232,-73.63374,us,ny
gloversville,43.05285,-74.34375,us,ny
greenburgh,41.03287,-73.84291,us,ny
harrison,40.96899,-73.71263,us,ny
hauppauge,40.82565,-73.20261,us,ny
hempstead,40.70621,-73.61874,us,ny
hicksville,40.76843,-73.52513,us,ny
holbrook,40.81232,-73.07844,us,ny
holtsville,40.81538,-73.04511,us,ny
huntington,40.86815,-73.42568,us,ny
huntington station,40.85343,-73.41151,us,ny
irondequoit,43.2134,-77.57972,us,ny
islip,40.72982,-73.21039,us,ny
ithaca,42.44063,-76.49661,us,ny
jamaica,40.69149,-73.80569,us,ny
jamestown,42.097,-79.23533,us,ny
johnson city,42.11563,-75.95881,us,ny
kenmore,42.96589,-78.87004,us,ny
kings park,40.88621,-73.25734,us,ny
kingston,41.92704,-73.99736,us,ny
kiryas joel,41.34204,-74.16792,us,ny
lackawanna,42.82561,-78.82337,us,ny
lake ronkonkoma,40.8351,-73.13122,us,ny
levittown,40.72593,-73.51429,us,ny
lindenhurst,40.68677,-73.37345,us,ny
lockport,43.17061,-78.69031,us,ny
long beach,40.58844,-73.65791,us,ny
long island city,40.74482,-73.94875,us,ny
lynbrook,40.65483,-73.6718,us,ny
mamaroneck,40.94871,-73.73263,us,ny
manhattan,40.78343,-73.96625,us,ny
massapequa,40.68066,-73.47429,us,ny
massapequa park,40.68038,-73.45512,us,ny
mastic,40.80204,-72.84094,us,ny
medford,40.8176,-73.00011,us,ny
melville,40.79343,-73.41512,us,ny
merrick,40.66288,-73.55152,us,ny
middletown,41.44593,-74.42293,us,ny
mineola,40.74927,-73.64068,us,ny
monsey,41.11121,-74.06848,us,ny
mount vernon,40.9126,-73.83708,us,ny
nanuet,41.08871,-74.01347,us,ny
new city,41.1476,-73.98931,us,ny
new rochelle,40.91149,-73.78235,us,ny
new york city,40.71427,-74.00597,us,ny
new york,40.71427,-74.00597,us,ny
newburgh,41.50343,-74.01042,us,ny
niagara falls,43.0945,-79.05671,us,ny
north amityville,40.6976,-73.42512,us,ny
north babylon,40.71649,-73.32179,us,ny
north bay shore,40.73621,-73.26262,us,ny
north bellmore,40.69149,-73.53346,us,ny
north massapequa,40.70093,-73.46207,us,ny
north tonawanda,43.03867,-78.8642,us,ny
north valley stream,40.6851,-73.7018,us,ny
oceanside,40.63871,-73.64013,us,ny
ossining,41.16287,-73.86152,us,ny
oswego,43.45535,-76.5105,us,ny
pearl river,41.05899,-74.02181,us,ny
peekskill,41.29009,-73.92042,us,ny
plainview,40.77649,-73.46735,us,ny
plattsburgh,44.69949,-73.45291,us,ny
port chester,41.00176,-73.66568,us,ny
port washington,40.82566,-73.69819,us,ny
poughkeepsie,41.70037,-73.92097,us,ny
borough of queens,40.68149,-73.83652,us,ny
rochester,43.15478,-77.61556,us,ny
rockville centre,40.65871,-73.64124,us,ny
rome,43.21285,-75.45573,us,ny
ronkonkoma,40.81538,-73.11233,us,ny
roosevelt,40.67871,-73.58902,us,ny
rotterdam,42.78702,-73.97096,us,ny
rye,40.98065,-73.68374,us,ny
saratoga springs,43.08313,-73.78457,us,ny
sayville,40.73593,-73.08206,us,ny
scarsdale,41.0051,-73.78458,us,ny
schenectady,42.81424,-73.93957,us,ny
seaford,40.66593,-73.48818,us,ny
selden,40.86649,-73.03566,us,ny
shirley,40.80149,-72.8676,us,ny
smithtown,40.85593,-73.20067,us,ny
spring valley,41.11315,-74.04375,us,ny
staten island,40.56233,-74.13986,us,ny
syosset,40.82621,-73.50207,us,ny
syracuse,43.04812,-76.14742,us,ny
tonawanda,43.02033,-78.88031,us,ny
troy,42.72841,-73.69179,us,ny
uniondale,40.70038,-73.59291,us,ny
utica,43.1009,-75.23266,us,ny
valley stream,40.66427,-73.70846,us,ny
wantagh,40.68371,-73.51013,us,ny
watertown,43.97478,-75.91076,us,ny
west albany,42.68313,-73.77845,us,ny
west babylon,40.71816,-73.35429,us,ny
west hempstead,40.70482,-73.65013,us,ny
west islip,40.70621,-73.30623,us,ny
west seneca,42.85006,-78.79975,us,ny
westbury,40.75566,-73.58763,us,ny
white plains,41.03399,-73.76291,us,ny
woodmere,40.63205,-73.71263,us,ny
yonkers,40.93121,-73.89875,us,ny
akron,41.08144,-81.51901,us,oh
alliance,40.91534,-81.10593,us,oh
ashland,40.86867,-82.31822,us,oh
ashtabula,41.86505,-80.78981,us,oh
aurora,41.31755,-81.34539,us,oh
austintown,41.10172,-80.76452,us,oh
avon,41.45171,-82.03542,us,oh
avon center,41.45976,-82.01959,us,oh
avon lake,41.50532,-82.0282,us,oh
barberton,41.01283,-81.60512,us,oh
bay village,41.48477,-81.92208,us,oh
berea,41.36616,-81.8543,us,oh
boardman,41.02423,-80.66285,us,oh
bowling green,41.37477,-83.65132,us,oh
broadview heights,41.31394,-81.68513,us,oh
brook park,41.39838,-81.80458,us,oh
brunswick,41.23811,-81.8418,us,oh
canton,40.79895,-81.37845,us,oh
cleveland,41.4995,-81.69541,us,oh
cuyahoga falls,41.13394,-81.48456,us,oh
defiance,41.28449,-84.35578,us,oh
delaware,40.29867,-83.06797,us,oh
dublin,40.09923,-83.11408,us,oh
east cleveland,41.53311,-81.57901,us,oh
eastlake,41.65394,-81.45039,us,oh
elyria,41.36838,-82.10765,us,oh
euclid,41.5931,-81.52679,us,oh
fairview park,41.44144,-81.8643,us,oh
findlay,41.04422,-83.64993,us,oh
fremont,41.35033,-83.12186,us,oh
gahanna,40.01923,-82.87934,us,oh
garfield heights,41.417,-81.60596,us,oh
green,40.94589,-81.48317,us,oh
hilliard,40.0334,-83.15825,us,oh
hudson,41.24006,-81.44067,us,oh
kent,41.15367,-81.35789,us,oh
lakewood,41.48199,-81.79819,us,oh
lima,40.74255,-84.10523,us,oh
lorain,41.45282,-82.18237,us,oh
mansfield,40.75839,-82.51545,us,oh
maple heights,41.41533,-81.56596,us,oh
marion,40.58867,-83.12852,us,oh
marysville,40.23645,-83.36714,us,oh
massillon,40.79672,-81.52151,us,oh
mayfield heights,41.51922,-81.4579,us,oh
medina,41.13839,-81.86375,us,oh
mentor,41.66616,-81.33955,us,oh
middleburg heights,41.36144,-81.81291,us,oh
mount vernon,40.3934,-82.48572,us,oh
new philadelphia,40.48979,-81.44567,us,oh
newark,40.05812,-82.40126,us,oh
niles,41.18284,-80.76536,us,oh
north canton,40.87589,-81.40234,us,oh
north olmsted,41.4156,-81.92347,us,oh
north ridgeville,41.38949,-82.01903,us,oh
north royalton,41.31366,-81.72457,us,oh
norwalk,41.24255,-82.61573,us,oh
oregon,41.64366,-83.48688,us,oh
painesville,41.72449,-81.24566,us,oh
parma,41.40477,-81.72291,us,oh
parma heights,41.39005,-81.75958,us,oh
perrysburg,41.557,-83.62716,us,oh
piqua,40.14477,-84.24244,us,oh
rocky river,41.4756,-81.8393,us,oh
sandusky,41.44894,-82.70796,us,oh
shaker heights,41.47394,-81.53707,us,oh
sidney,40.28422,-84.1555,us,oh
solon,41.38978,-81.44123,us,oh
south euclid,41.52311,-81.51846,us,oh
steubenville,40.36979,-80.63396,us,oh
stow,41.1595,-81.44039,us,oh
streetsboro,41.23922,-81.34594,us,oh
strongsville,41.3145,-81.83569,us,oh
sylvania,41.71894,-83.71299,us,oh
tallmadge,41.10145,-81.44178,us,oh
tiffin,41.1145,-83.17797,us,oh
toledo,41.66394,-83.55521,us,oh
troy,40.0395,-84.20328,us,oh
twinsburg,41.31256,-81.44011,us,oh
wadsworth,41.02561,-81.72985,us,oh
warren,41.23756,-80.81842,us,oh
westerville,40.12617,-82.92907,us,oh
westlake,41.45532,-81.91792,us,oh
willoughby,41.63977,-81.4065,us,oh
wooster,40.80517,-81.93646,us,oh
youngstown,41.09978,-80.64952,us,oh
allentown,40.60843,-75.49018,us,pa
allison park,40.55951,-79.95867,us,pa
altoona,40.51868,-78.39474,us,pa
back mountain,41.33591,-75.99631,us,pa
baldwin,40.33813,-79.97894,us,pa
bethel park,40.32757,-80.0395,us,pa
bethlehem,40.62593,-75.37046,us,pa
carlisle,40.20148,-77.18887,us,pa
easton,40.68843,-75.22073,us,pa
erie,42.12922,-80.08506,us,pa
harrisburg,40.2737,-76.88442,us,pa
hazleton,40.95842,-75.97465,us,pa
hermitage,41.23339,-80.44868,us,pa
johnstown,40.32674,-78.92197,us,pa
king of prussia,40.08927,-75.39602,us,pa
lancaster,40.03788,-76.30551,us,pa
lansdale,40.2415,-75.28379,us,pa
lebanon,40.34093,-76.41135,us,pa
levittown,40.15511,-74.82877,us,pa
limerick,40.23093,-75.52212,us,pa
mckeesport,40.34785,-79.86422,us,pa
monroeville,40.42118,-79.7881,us,pa
mount lebanon,40.35535,-80.0495,us,pa
murrysville,40.4284,-79.69755,us,pa
new castle,41.00367,-80.34701,us,pa
norristown,40.1215,-75.3399,us,pa
penn hills,40.50118,-79.83922,us,pa
phoenixville,40.13038,-75.51491,us,pa
pittsburgh,40.44062,-79.99589,us,pa
plum,40.50035,-79.74949,us,pa
pottstown,40.24537,-75.64963,us,pa
radnor,40.04622,-75.35991,us,pa
reading,40.33565,-75.92687,us,pa
scranton,41.40916,-75.6649,us,pa
state college,40.79339,-77.86,us,pa
upper saint clair,40.3359,-80.08339,us,pa
wayne,40.044,-75.38769,us,pa
west mifflin,40.3634,-79.86644,us,pa
whitehall township,40.66676,-75.49991,us,pa
wilkes-barre,41.24591,-75.88131,us,pa
wilkinsburg,40.44174,-79.88199,us,pa
williamsport,41.24119,-77.00108,us,pa
willow grove,40.144,-75.11573,us,pa
barrington,41.74066,-71.30866,us,ri
bristol,41.67705,-71.26616,us,ri
central falls,41.89066,-71.39228,us,ri
coventry,41.7001,-71.68284,us,ri
cranston,41.77982,-71.43728,us,ri
cumberland,41.96677,-71.43284,us,ri
east providence,41.81371,-71.37005,us,ri
middletown,41.54566,-71.29144,us,ri
newport,41.4901,-71.31283,us,ri
north kingstown,41.5501,-71.46617,us,ri
north providence,41.8501,-71.46617,us,ri
pawtucket,41.87871,-71.38256,us,ri
portsmouth,41.60232,-71.25033,us,ri
providence,41.82399,-71.41283,us,ri
smithfield,41.92204,-71.54951,us,ri
warwick,41.7001,-71.41617,us,ri
west warwick,41.69689,-71.52194,us,ri
westerly,41.3776,-71.82729,us,ri
woonsocket,42.00288,-71.51478,us,ri
aberdeen,45.4647,-98.48648,us,sd
brookings,44.31136,-96.79839,us,sd
mitchell,43.70943,-98.0298,us,sd
sioux falls,43.54997,-96.70033,us,sd
watertown,44.89941,-97.11507,us,sd
burlington,44.47588,-73.21207,us,vt
colchester,44.54394,-73.14791,us,vt
rutland,43.61062,-72.97261,us,vt
south burlington,44.46699,-73.17096,us,vt
appleton,44.26193,-88.41538,us,wi
ashwaubenon,44.48221,-88.0701,us,wi
beaver dam,43.45777,-88.83733,us,wi
beloit,42.50835,-89.03178,us,wi
brookfield,43.06057,-88.10648,us,wi
caledonia,42.8078,-87.92425,us,wi
cudahy,42.95974,-87.86147,us,wi
de pere,44.44888,-88.06038,us,wi
eau claire,44.81135,-91.49849,us,wi
fitchburg,42.96083,-89.46984,us,wi
fond du lac,43.775,-88.43883,us,wi
franklin,42.88863,-88.03842,us,wi
germantown,43.22862,-88.11037,us,wi
green bay,44.51916,-88.01983,us,wi
greenfield,42.9614,-88.01259,us,wi
howard,44.5436,-88.08816,us,wi
janesville,42.68279,-89.01872,us,wi
kaukauna,44.27804,-88.27205,us,wi
kenosha,42.58474,-87.82119,us,wi
la crosse,43.80136,-91.23958,us,wi
madison,43.07305,-89.40123,us,wi
manitowoc,44.08861,-87.65758,us,wi
marshfield,44.66885,-90.1718,us,wi
menasha,44.20221,-88.4465,us,wi
menomonee falls,43.1789,-88.11731,us,wi
menomonie,44.87552,-91.91934,us,wi
mequon,43.2364,-87.98453,us,wi
middleton,43.09722,-89.50429,us,wi
milwaukee,43.0389,-87.90647,us,wi
muskego,42.90585,-88.13898,us,wi
neenah,44.18582,-88.46261,us,wi
new berlin,42.9764,-88.10842,us,wi
north la crosse,43.84635,-91.24819,us,wi
oak creek,42.88585,-87.86314,us,wi
oconomowoc,43.11167,-88.49927,us,wi
onalaska,43.88441,-91.23514,us,wi
oshkosh,44.02471,-88.54261,us,wi
pleasant prairie,42.55308,-87.93341,us,wi
racine,42.72613,-87.78285,us,wi
sheboygan,43.75083,-87.71453,us,wi
south milwaukee,42.91057,-87.86064,us,wi
stevens point,44.52358,-89.57456,us,wi
sun prairie,43.1836,-89.21373,us,wi
superior,46.72077,-92.10408,us,wi
watertown,43.19472,-88.72899,us,wi
waukesha,43.01168,-88.23148,us,wi
wausau,44.95914,-89.63012,us,wi
wauwatosa,43.04946,-88.00759,us,wi
west allis,43.01668,-88.00703,us,wi
west bend,43.42528,-88.18343,us,wi
wisconsin rapids,44.38358,-89.81735,us,wi
weirton,40.41896,-80.58952,us,wv
weirton heights,40.4084,-80.53924,us,wv
wheeling,40.06396,-80.72091,us,wv
ansonia,41.34621,-73.079,us,ct
bridgeport,41.16704,-73.20483,us,ct
bristol,41.67176,-72.94927,us,ct
branford,41.27954,-72.8151,us,ct
cheshire,41.49899,-72.90066,us,ct
fillmore,34.39916,-118.91815,us,ca
buckeye,33.37032,-112.58378,us,az
bullhead city,35.14778,-114.5683,us,az
casa grande,32.8795,-111.75735,us,az
casas adobes,32.32341,-110.9951,us,az
catalina foothills,32.29785,-110.9187,us,az
chandler,33.30616,-111.84125,us,az
douglas,31.34455,-109.54534,us,az
drexel heights,32.14119,-111.02843,us,az
el mirage,33.61309,-112.3246,us,az
eloy,32.7559,-111.55484,us,az
flagstaff,35.19807,-111.65127,us,az
florence,33.03145,-111.38734,us,az
flowing wells,32.29396,-111.00982,us,az
fortuna foothills,32.65783,-114.41189,us,az
fountain hills,33.61171,-111.71736,us,az
gilbert,33.35283,-111.78903,us,az
glendale,33.53865,-112.18599,us,az
goodyear,33.43532,-112.35821,us,az
green valley,31.85425,-110.9937,us,az
kingman,35.18944,-114.05301,us,az
lake havasu city,34.4839,-114.32245,us,az
marana,32.43674,-111.22538,us,az
maricopa,33.05811,-112.04764,us,az
mesa,33.42227,-111.82264,us,az
nogales,31.34038,-110.93425,us,az
oro valley,32.39091,-110.96649,us,az
payson,34.23087,-111.32514,us,az
peoria,33.5806,-112.23738,us,az
phoenix,33.44838,-112.07404,us,az
prescott,34.54002,-112.4685,us,az
prescott valley,34.61002,-112.31572,us,az
queen creek,33.24866,-111.6343,us,az
rio rico,31.47148,-110.97648,us,az
sahuarita,31.95758,-110.95565,us,az
san luis,32.487,-114.78218,us,az
scottsdale,33.50921,-111.89903,us,az
sierra vista,31.55454,-110.30369,us,az
sun city,33.59754,-112.27182,us,az
sun city west,33.66198,-112.34127,us,az
surprise,33.63059,-112.33322,us,az
tanque verde,32.25174,-110.73731,us,az
tempe,33.41477,-111.90931,us,az
tempe junction,33.41421,-111.94348,us,az
tucson,32.22174,-110.92648,us,az
yuma,32.72532,-114.6244,us,az
adelanto,34.58277,-117.40922,us,ca
agoura,34.14306,-118.73787,us,ca
agoura hills,34.13639,-118.77453,us,ca
alameda,37.76521,-122.24164,us,ca
albany,37.88687,-122.29775,us,ca
alhambra,34.09529,-118.12701,us,ca
aliso viejo,33.56504,-117.72712,us,ca
altadena,34.18973,-118.13118,us,ca
alum rock,37.36605,-121.82718,us,ca
american canyon,38.17492,-122.2608,us,ca
anaheim,33.83529,-117.9145,us,ca
antelope,38.70824,-121.32995,us,ca
antioch,38.00492,-121.80579,us,ca
apple valley,34.50083,-117.18588,us,ca
arcadia,34.13973,-118.03534,us,ca
arroyo grande,35.11859,-120.59073,us,ca
artesia,33.86585,-118.08312,us,ca
arvin,35.20913,-118.82843,us,ca
ashland,37.69465,-122.11385,us,ca
atascadero,35.48942,-120.67073,us,ca
atwater,37.34772,-120.60908,us,ca
avenal,36.00412,-120.12903,us,ca
avocado heights,34.03612,-117.99118,us,ca
azusa,34.13362,-117.90756,us,ca
bakersfield,35.37329,-119.01871,us,ca
baldwin park,34.08529,-117.9609,us,ca
banning,33.92557,-116.87641,us,ca
barstow,34.89859,-117.02282,us,ca
barstow heights,34.86971,-117.05615,us,ca
bay point,38.02909,-121.96163,us,ca
beaumont,33.92946,-116.97725,us,ca
bell,33.97751,-118.18702,us,ca
bell gardens,33.96529,-118.15146,us,ca
bellflower,33.88168,-118.11701,us,ca
belmont,37.52021,-122.2758,us,ca
benicia,38.04937,-122.15858,us,ca
berkeley,37.87159,-122.27275,us,ca
beverly hills,34.07362,-118.40036,us,ca
bloomington,34.07029,-117.39588,us,ca
blythe,33.6103,-114.59635,us,ca
bostonia,32.80755,-116.93642,us,ca
boyle heights,34.0339,-118.20535,us,ca
brawley,32.97866,-115.53027,us,ca
brea,33.91668,-117.90006,us,ca
brentwood,37.93187,-121.69579,us,ca
buena park,33.86751,-117.99812,us,ca
burbank,34.18084,-118.30897,us,ca
burlingame,37.5841,-122.36608,us,ca
calabasas,34.15778,-118.63842,us,ca
calexico,32.67895,-115.49888,us,ca
camarillo,34.21639,-119.0376,us,ca
cameron park,38.66879,-120.98716,us,ca
campbell,37.28717,-121.94996,us,ca
canoga park,34.20112,-118.59814,us,ca
carlsbad,33.15809,-117.35059,us,ca
carmichael,38.61713,-121.32828,us,ca
carson,33.83141,-118.28202,us,ca
castaic,34.48888,-118.62287,us,ca
castro valley,37.6941,-122.08635,us,ca
cathedral city,33.77974,-116.46529,us,ca
ceres,37.59493,-120.95771,us,ca
cerritos,33.85835,-118.06479,us,ca
chatsworth,34.25723,-118.6012,us,ca
chico,39.72849,-121.83748,us,ca
chino,34.01223,-117.68894,us,ca
chino hills,33.9938,-117.75888,us,ca
chowchilla,37.123,-120.26018,us,ca
chula vista,32.64005,-117.0842,us,ca
citrus heights,38.70712,-121.28106,us,ca
claremont,34.09668,-117.71978,us,ca
clearlake,38.95823,-122.62637,us,ca
clovis,36.82523,-119.70292,us,ca
coachella,33.6803,-116.17389,us,ca
colton,34.0739,-117.31365,us,ca
compton,33.89585,-118.22007,us,ca
concord,37.97798,-122.03107,us,ca
corcoran,36.09801,-119.5604,us,ca
corona,33.87529,-117.56644,us,ca
coronado,32.68589,-117.18309,us,ca
costa mesa,33.64113,-117.91867,us,ca
covina,34.09001,-117.89034,us,ca
cudahy,33.96057,-118.18535,us,ca
culver city,34.02112,-118.39647,us,ca
cupertino,37.323,-122.03218,us,ca
cypress,33.81696,-118.03729,us,ca
daly city,37.70577,-122.46192,us,ca
dana point,33.46697,-117.69811,us,ca
danville,37.82159,-121.99996,us,ca
davis,38.54491,-121.74052,us,ca
delano,35.76884,-119.24705,us,ca
desert hot springs,33.96173,-116.50353,us,ca
diamond bar,34.02862,-117.81034,us,ca
dinuba,36.54328,-119.38707,us,ca
dixon,38.44546,-121.8233,us,ca
downey,33.94001,-118.13257,us,ca
duarte,34.13945,-117.97729,us,ca
dublin,37.70215,-121.93579,us,ca
east rancho dominguez,33.89807,-118.19535,us,ca
east hemet,33.74002,-116.93891,us,ca
east los angeles,34.0239,-118.17202,us,ca
east palo alto,37.46883,-122.14108,us,ca
el cajon,32.79477,-116.96253,us,ca
el centro,32.792,-115.56305,us,ca
el cerrito,37.91576,-122.31164,us,ca
el dorado hills,38.68574,-121.08217,us,ca
el monte,34.06862,-118.02757,us,ca
el segundo,33.91918,-118.41647,us,ca
elk grove,38.4088,-121.37162,us,ca
encinitas,33.03699,-117.29198,us,ca
escondido,33.11921,-117.08642,us,ca
fair oaks,38.64463,-121.27217,us,ca
fairfield,38.24936,-122.03997,us,ca
fallbrook,33.37642,-117.25115,us,ca
florin,38.49602,-121.40884,us,ca
folsom,38.67796,-121.17606,us,ca
fontana,34.09223,-117.43505,us,ca
foothill farms,38.67877,-121.35114,us,ca
foster city,37.55855,-122.27108,us,ca
fountain valley,33.70918,-117.95367,us,ca
fremont,37.54827,-121.98857,us,ca
fresno,36.74773,-119.77237,us,ca
fullerton,33.87029,-117.92534,us,ca
galt,38.25464,-121.29995,us,ca
garden grove,33.77391,-117.94145,us,ca
gardena,33.88835,-118.30896,us,ca
gilroy,37.00578,-121.56828,us,ca
glen avon,34.01168,-117.48477,us,ca
glendale,34.14251,-118.25508,us,ca
glendora,34.13612,-117.86534,us,ca
goleta,34.43583,-119.82764,us,ca
granite bay,38.76323,-121.16384,us,ca
greenfield,36.3208,-121.24381,us,ca
hacienda heights,33.99307,-117.96868,us,ca
hanford,36.32745,-119.64568,us,ca
hawthorne,33.9164,-118.35257,us,ca
hayward,37.66882,-122.0808,us,ca
hemet,33.74761,-116.97307,us,ca
hercules,38.01714,-122.28858,us,ca
hermosa beach,33.86224,-118.39952,us,ca
hesperia,34.42639,-117.30088,us,ca
highland,34.12834,-117.20865,us,ca
hollister,36.85245,-121.4016,us,ca
hollywood,34.09834,-118.32674,us,ca
huntington beach,33.6603,-117.99923,us,ca
huntington park,33.98168,-118.22507,us,ca
imperial beach,32.58394,-117.11308,us,ca
indio,33.7207,-116.21677,us,ca
inglewood,33.96168,-118.35313,us,ca
irvine,37.68187,-121.76801,us,ca
lodi,38.1302,-121.27245,us,ca
loma linda,34.04835,-117.26115,us,ca
lomita,33.79224,-118.31507,us,ca
lompoc,34.63915,-120.45794,us,ca
long beach,33.76696,-118.18923,us,ca
los altos,37.38522,-122.11413,us,ca
los angeles,34.05223,-118.24368,us,ca
los banos,37.05828,-120.84992,us,ca
los gatos,37.22661,-121.97468,us,ca
lynwood,33.93029,-118.21146,us,ca
madera,36.96134,-120.06072,us,ca
manhattan beach,33.88474,-118.41091,us,ca
manteca,37.79743,-121.21605,us,ca
marina,36.6844,-121.80217,us,ca
martinez,38.01937,-122.13413,us,ca
maywood,33.98668,-118.18535,us,ca
mead valley,33.83335,-117.29615,us,ca
menifee,33.72835,-117.14642,us,ca
menlo park,37.45383,-122.18219,us,ca
merced,37.30216,-120.48297,us,ca
millbrae,37.59855,-122.38719,us,ca
milpitas,37.42827,-121.90662,us,ca
mira loma,33.99251,-117.51644,us,ca
mission viejo,33.60002,-117.672,us,ca
modesto,37.6391,-120.99688,us,ca
monrovia,34.14806,-117.99895,us,ca
montclair,34.07751,-117.68978,us,ca
montebello,34.00946,-118.10535,us,ca
monterey,36.60024,-121.89468,us,ca
monterey park,34.06251,-118.12285,us,ca
moorpark,34.28556,-118.88204,us,ca
moraga,37.83493,-122.12969,us,ca
moreno valley,33.93752,-117.23059,us,ca
morgan hill,37.1305,-121.65439,us,ca
mountain view,37.38605,-122.08385,us,ca
murrieta,33.55391,-117.21392,us,ca
napa,38.29714,-122.28553,us,ca
national city,32.67811,-117.0992,us,ca
newark,37.52966,-122.04024,us,ca
newport beach,33.61891,-117.92895,us,ca
nipomo,35.04275,-120.476,us,ca
norco,33.93113,-117.54866,us,ca
north glendale,34.16056,-118.26452,us,ca
north highlands,38.68574,-121.37217,us,ca
north hollywood,34.17223,-118.37897,us,ca
northridge,34.22834,-118.53675,us,ca
norwalk,33.90224,-118.08173,us,ca
novato,38.10742,-122.5697,us,ca
oakdale,37.76659,-120.84715,us,ca
oakland,37.80437,-122.2708,us,ca
oakley,37.99742,-121.71245,us,ca
oceanside,33.19587,-117.37948,us,ca
oildale,35.41968,-119.01955,us,ca
ontario,34.06334,-117.65089,us,ca
orange,33.78779,-117.85311,us,ca
orangevale,38.67851,-121.22578,us,ca
orcutt,34.86526,-120.436,us,ca
orinda,37.87715,-122.17969,us,ca
oroville,39.51394,-121.55776,us,ca
oxnard,34.1975,-119.17705,us,ca
oxnard shores,34.19084,-119.2415,us,ca
pacifica,37.61383,-122.48692,us,ca
pacific grove,36.61774,-121.91662,us,ca
palm desert,33.72255,-116.37697,us,ca
palm springs,33.8303,-116.54529,us,ca
palmdale,34.57943,-118.11646,us,ca
palo alto,37.44188,-122.14302,us,ca
paradise,39.75961,-121.62192,us,ca
paramount,33.88946,-118.15979,us,ca
pasadena,34.14778,-118.14452,us,ca
paso robles,35.62664,-120.691,us,ca
patterson,37.4716,-121.12966,us,ca
perris,33.78252,-117.22865,us,ca
petaluma,38.23242,-122.63665,us,ca
pico rivera,33.98307,-118.09673,us,ca
pinole,38.00437,-122.29886,us,ca
pittsburg,38.02798,-121.88468,us,ca
placentia,33.87224,-117.87034,us,ca
pleasant hill,37.94798,-122.0608,us,ca
pleasanton,37.66243,-121.87468,us,ca
pomona,34.05529,-117.75228,us,ca
port hueneme,34.14778,-119.19511,us,ca
porterville,36.06523,-119.01677,us,ca
poway,32.96282,-117.03586,us,ca
prunedale,36.77579,-121.66967,us,ca
ramona,33.04171,-116.86808,us,ca
rancho cordova,38.58907,-121.30273,us,ca
rancho cucamonga,34.1064,-117.59311,us,ca
rancho mirage,33.73974,-116.41279,us,ca
rancho palos verdes,33.74446,-118.38702,us,ca
rancho san diego,32.74727,-116.9353,us,ca
rancho santa margarita,33.64086,-117.6031,us,ca
redlands,34.05557,-117.18254,us,ca
redondo beach,33.84918,-118.38841,us,ca
redwood city,37.48522,-122.23635,us,ca
reedley,36.59634,-119.4504,us,ca
rialto,34.1064,-117.37032,us,ca
richmond,37.93576,-122.34775,us,ca
ridgecrest,35.62246,-117.6709,us,ca
rio linda,38.69101,-121.44857,us,ca
riverbank,37.73604,-120.93549,us,ca
riverside,33.95335,-117.39616,us,ca
rocklin,38.79073,-121.23578,us,ca
rohnert park,38.33964,-122.7011,us,ca
rosamond,34.86414,-118.16341,us,ca
rosemead,34.08057,-118.07285,us,ca
rosemont,38.55185,-121.36467,us,ca
roseville,38.75212,-121.28801,us,ca
rowland heights,33.97612,-117.90534,us,ca
rubidoux,33.99613,-117.4056,us,ca
sacramento,38.58157,-121.4944,us,ca
salinas,36.67774,-121.6555,us,ca
san bernardino,34.10834,-117.28977,us,ca
san bruno,37.63049,-122.41108,us,ca
san carlos,37.50716,-122.26052,us,ca
san clemente,33.42697,-117.61199,us,ca
san diego,32.71533,-117.15726,us,ca
san dimas,34.10668,-117.80673,us,ca
san fernando,34.28195,-118.43897,us,ca
san francisco,37.77493,-122.41942,us,ca
san gabriel,34.09611,-118.10583,us,ca
san jacinto,33.78391,-116.95864,us,ca
san jose,37.33939,-121.89496,us,ca
san juan capistrano,33.50169,-117.66255,us,ca
san leandro,37.72493,-122.15608,us,ca
san lorenzo,37.68104,-122.12441,us,ca
san luis obispo,35.28275,-120.65962,us,ca
san marcos,33.14337,-117.16614,us,ca
san mateo,37.56299,-122.32553,us,ca
san pablo,37.96215,-122.34553,us,ca
san pedro,33.73585,-118.29229,us,ca
san rafael,37.97353,-122.53109,us,ca
san ramon,37.77993,-121.97802,us,ca
sanger,36.70801,-119.55597,us,ca
santa ana,33.74557,-117.86783,us,ca
santa barbara,34.42083,-119.69819,us,ca
santa clara,37.35411,-121.95524,us,ca
santa clarita,34.39166,-118.54259,us,ca
santa cruz,36.97412,-122.0308,us,ca
santa fe springs,33.94724,-118.08535,us,ca
santa maria,34.95303,-120.43572,us,ca
santa monica,34.01945,-118.49119,us,ca
santa paula,34.35417,-119.05927,us,ca
santa rosa,38.44047,-122.71443,us,ca
santee,32.83838,-116.97392,us,ca
saratoga,37.26383,-122.02301,us,ca
seal beach,33.74141,-118.10479,us,ca
seaside,36.61107,-121.85162,us,ca
selma,36.57078,-119.61208,us,ca
shafter,35.50051,-119.27178,us,ca
sherman oaks,34.15112,-118.44925,us,ca
simi valley,34.26945,-118.78148,us,ca
soledad,36.42469,-121.32632,us,ca
south el monte,34.05195,-118.04673,us,ca
south gate,33.95474,-118.21202,us,ca
south lake tahoe,38.93324,-119.98435,us,ca
south pasadena,34.11612,-118.15035,us,ca
south san francisco,37.65466,-122.40775,us,ca
south san jose hills,34.01279,-117.90478,us,ca
south whittier,33.95015,-118.03917,us,ca
south yuba city,39.11656,-121.63913,us,ca
spring valley,32.74477,-116.99892,us,ca
stanton,33.80252,-117.99312,us,ca
stockton,37.9577,-121.29078,us,ca
suisun,38.23825,-122.04024,us,ca
sun city,33.70919,-117.19726,us,ca
sunnyvale,37.36883,-122.03635,us,ca
temecula,33.49364,-117.14836,us,ca
temple city,34.10723,-118.05785,us,ca
thousand oaks,34.17056,-118.83759,us,ca
torrance,33.83585,-118.34063,us,ca
tracy,37.73987,-121.42618,us,ca
truckee,39.32796,-120.18325,us,ca
tulare,36.20773,-119.34734,us,ca
turlock,37.49466,-120.84659,us,ca
tustin,33.74585,-117.82617,us,ca
north tustin,33.76446,-117.79394,us,ca
twentynine palms,34.13556,-116.05417,us,ca
ukiah,39.15017,-123.20778,us,ca
union city,37.59577,-122.01913,us,ca
universal city,34.1389,-118.35341,us,ca
upland,37.90631,-122.06496,us,ca
walnut park,33.96807,-118.22507,us,ca
watsonville,36.91023,-121.75689,us,ca
west carson,33.82168,-118.29257,us,ca
west covina,34.06862,-117.93895,us,ca
west hollywood,34.09001,-118.36174,us,ca
west puente valley,34.05168,-117.9684,us,ca
west sacramento,38.58046,-121.53023,us,ca
westminster,33.75918,-118.00673,us,ca
westmont,33.9414,-118.3023,us,ca
whittier,33.97918,-118.03284,us,ca
wildomar,33.59891,-117.28004,us,ca
willowbrook,33.91696,-118.25507,us,ca
windsor,38.54713,-122.81638,us,ca
winter gardens,32.83116,-116.93336,us,ca
woodland,38.67852,-121.7733,us,ca
woodland hills,34.16834,-118.60592,us,ca
yorba linda,33.88863,-117.81311,us,ca
yuba city,39.14045,-121.61691,us,ca
yucaipa,34.03363,-117.04309,us,ca
yucca valley,34.11417,-116.43224,us,ca
arvada,39.80276,-105.08748,us,co
aurora,39.72943,-104.83192,us,co
brighton,39.98526,-104.82053,us,co
broomfield,39.92054,-105.08665,us,co
canon city,38.44098,-105.24245,us,co
castle rock,39.37221,-104.85609,us,co
castlewood,39.58471,-104.90109,us,co
centennial,39.57916,-104.87692,us,co
cimarron hills,38.85861,-104.69886,us,co
clifton,39.09193,-108.44898,us,co
colorado springs,38.83388,-104.82136,us,co
columbine,39.58777,-105.06943,us,co
commerce city,39.80832,-104.93387,us,co
denver,39.73915,-104.9847,us,co
durango,37.27528,-107.88007,us,co
englewood,39.64777,-104.98776,us,co
fountain,38.68222,-104.70081,us,co
golden,39.75554,-105.2211,us,co
grand junction,39.06387,-108.55065,us,co
highlands ranch,39.55388,-104.96943,us,co
ken caryl,39.57582,-105.11221,us,co
lafayette,39.9936,-105.08971,us,co
lakewood,39.70471,-105.08137,us,co
littleton,39.61332,-105.01665,us,co
louisville,39.97776,-105.13193,us,co
montrose,38.47832,-107.87617,us,co
northglenn,39.88554,-104.9872,us,co
parker,39.5186,-104.76136,us,co
pueblo,38.25445,-104.60914,us,co
pueblo west,38.35,-104.72275,us,co
sherrelwood,39.83776,-105.00137,us,co
southglenn,39.58721,-104.95276,us,co
thornton,39.86804,-104.97192,us,co
westminster,39.83665,-105.0372,us,co
wheat ridge,39.7661,-105.07721,us,co
dodge city,37.7528,-100.01708,us,ks
garden city,37.97169,-100.87266,us,ks
liberal,37.04308,-100.921,us,ks
alamogordo,32.89953,-105.96027,us,nm
albuquerque,35.08449,-106.65114,us,nm
carlsbad,32.42067,-104.22884,us,nm
clovis,34.4048,-103.20523,us,nm
farmington,36.72806,-108.21869,us,nm
gallup,35.52808,-108.74258,us,nm
hobbs,32.70261,-103.13604,us,nm
las cruces,32.31232,-106.77834,us,nm
rio rancho,35.23338,-106.66447,us,nm
roswell,33.39437,-104.52491,us,nm
santa fe,35.68698,-105.9378,us,nm
south valley,35.01005,-106.67808,us,nm
boulder city,35.97859,-114.83249,us,nv
carson city,39.1638,-119.7674,us,nv
enterprise,36.02525,-115.24194,us,nv
fernley,39.60797,-119.25183,us,nv
henderson,36.0397,-114.98194,us,nv
las vegas,36.17497,-115.13722,us,nv
mesquite,36.80553,-114.06719,us,nv
north las vegas,36.19886,-115.1175,us,nv
pahrump,36.20829,-115.98391,us,nv
paradise,36.09719,-115.14666,us,nv
reno,39.52963,-119.8138,us,nv
spanish springs,39.64908,-119.70741,us,nv
sparks,39.53491,-119.75269,us,nv
spring valley,36.10803,-115.245,us,nv
sun valley,39.5963,-119.77602,us,nv
sunrise manor,36.21108,-115.07306,us,nv
whitney,36.09831,-115.0363,us,nv
winchester,36.12997,-115.11889,us,nv
amarillo,35.222,-101.8313,us,tx
big spring,32.2504,-101.47874,us,tx
del rio,29.36273,-100.89676,us,tx
eagle pass,28.70914,-100.49952,us,tx
el paso,31.75872,-106.48693,us,tx
hereford,34.81521,-102.39932,us,tx
horizon city,31.69261,-106.20748,us,tx
lubbock,33.57786,-101.85517,us,tx
midland,31.99735,-102.07791,us,tx
odessa,31.84568,-102.36764,us,tx
pampa,35.53616,-100.95987,us,tx
plainview,34.18479,-101.70684,us,tx
san angelo,31.46377,-100.43704,us,tx
socorro,31.65456,-106.30331,us,tx
socorro mission number 1 colonia,31.63622,-106.29054,us,tx
west odessa,31.84235,-102.49876,us,tx
cedar city,37.67748,-113.06189,us,ut
saint george,37.10415,-113.58412,us,ut
washington,37.13054,-113.50829,us,ut
wasco,35.59412,-119.34095,us,ca
anthem,33.86726,-112.14682,us,az
apache junction,33.41505,-111.54958,us,az
avondale,33.4356,-112.3496,us,az
juneau,58.30194,-134.41972,us,ak
arcata,40.86652,-124.08284,us,ca
bayside,40.84235,-124.06367,us,ca
eureka,40.80207,-124.16367,us,ca
mckinleyville,40.94652,-124.10062,us,ca
redding,40.58654,-122.39168,us,ca
susanville,40.41628,-120.65301,us,ca
boulder,40.01499,-105.27055,us,co
erie,40.05026,-105.04998,us,co
evans,40.37637,-104.69219,us,co
fort collins,40.58526,-105.08442,us,co
greeley,40.42331,-104.70913,us,co
longmont,40.16721,-105.10193,us,co
loveland,40.39776,-105.07498,us,co
windsor,40.47748,-104.90136,us,co
boise,43.6135,-116.20345,us,id
caldwell,43.66294,-116.68736,us,id
coeur d'alene,47.67768,-116.78047,us,id
eagle,43.69544,-116.35401,us,id
idaho falls,43.46658,-112.03414,us,id
kuna,43.49183,-116.42012,us,id
lewiston,46.41655,-117.01766,us,id
lewiston orchards,46.38044,-116.97543,us,id
meridian,43.61211,-116.39151,us,id
moscow,46.73239,-117.00017,us,id
nampa,43.54072,-116.56346,us,id
pocatello,42.8713,-112.44553,us,id
post falls,47.71796,-116.95159,us,id
rexburg,43.82602,-111.78969,us,id
twin falls,42.56297,-114.46087,us,id
billings,45.78329,-108.50069,us,mt
bozeman,45.67965,-111.03856,us,mt
butte,46.00382,-112.53474,us,mt
great falls,47.50024,-111.30081,us,mt
helena,46.59271,-112.03611,us,mt
kalispell,48.19579,-114.31291,us,mt
missoula,46.87215,-113.994,us,mt
bismarck,46.80833,-100.78374,us,nd
dickinson,46.87918,-102.78962,us,nd
mandan,46.82666,-100.88958,us,nd
minot,48.23251,-101.29627,us,nd
north platte,41.12389,-100.76542,us,ne
scottsbluff,41.86663,-103.66717,us,ne
elko,40.83242,-115.76312,us,nv
albany,44.63651,-123.10593,us,or
aloha,45.49428,-122.86705,us,or
altamont,42.20681,-121.73722,us,or
ashland,42.19458,-122.70948,us,or
beaverton,45.48706,-122.80371,us,or
bend,44.05817,-121.31531,us,or
bethany,45.55789,-122.8676,us,or
canby,45.2629,-122.69259,us,or
central point,42.37596,-122.91643,us,or
coos bay,43.3665,-124.21789,us,or
corvallis,44.56457,-123.26204,us,or
eugene,44.05207,-123.08675,us,or
forest grove,45.51984,-123.11066,us,or
four corners,44.9279,-122.98371,us,or
grants pass,42.43933,-123.33067,us,or
gresham,45.49818,-122.43148,us,or
hayesville,44.98595,-122.98287,us,or
hermiston,45.84041,-119.28946,us,or
hillsboro,45.52289,-122.98983,us,or
keizer,44.99012,-123.02621,us,or
klamath falls,42.22487,-121.78167,us,or
lake oswego,45.42067,-122.67065,us,or
lebanon,44.53651,-122.90703,us,or
lents,45.47984,-122.56731,us,or
mcminnville,45.21012,-123.19872,us,or
medford,42.32652,-122.87559,us,or
milwaukie,45.44623,-122.63926,us,or
newberg,45.30012,-122.97316,us,or
oak grove,45.41679,-122.64009,us,or
oregon city,45.35734,-122.60676,us,or
pendleton,45.67207,-118.7886,us,or
portland,45.52345,-122.67621,us,or
redmond,44.27262,-121.17392,us,or
roseburg,43.2165,-123.34174,us,or
salem,44.9429,-123.0351,us,or
sherwood,45.35651,-122.8401,us,or
springfield,44.04624,-123.02203,us,or
tigard,45.43123,-122.77149,us,or
troutdale,45.53929,-122.38731,us,or
tualatin,45.38401,-122.76399,us,or
west linn,45.36568,-122.61231,us,or
wilsonville,45.29984,-122.77371,us,or
woodburn,45.14373,-122.85537,us,or
rapid city,44.08054,-103.23101,us,sd
bountiful,40.88939,-111.88077,us,ut
brigham city,41.51021,-112.0155,us,ut
centerville,40.918,-111.87216,us,ut
clearfield,41.11078,-112.02605,us,ut
clinton,41.13967,-112.0505,us,ut
cottonwood heights,40.61967,-111.81021,us,ut
draper,40.52467,-111.86382,us,ut
eagle mountain,40.31412,-112.00688,us,ut
east millcreek,40.69995,-111.81049,us,ut
farmington,40.9805,-111.88744,us,ut
herriman,40.51411,-112.03299,us,ut
highland,40.42548,-111.79447,us,ut
holladay,40.66884,-111.82466,us,ut
kaysville,41.03522,-111.93855,us,ut
kearns,40.65995,-111.99633,us,ut
layton,41.06022,-111.97105,us,ut
lehi,40.39162,-111.85077,us,ut
logan,41.73549,-111.83439,us,ut
magna,40.70911,-112.10161,us,ut
midvale,40.61106,-111.89994,us,ut
millcreek,40.68689,-111.87549,us,ut
murray,40.66689,-111.88799,us,ut
north ogden,41.30716,-111.96022,us,ut
north salt lake,40.84856,-111.90688,us,ut
ogden,41.223,-111.97383,us,ut
orem,40.2969,-111.69465,us,ut
payson,40.0444,-111.73215,us,ut
pleasant grove,40.36412,-111.73854,us,ut
provo,40.23384,-111.65853,us,ut
riverton,40.52189,-111.9391,us,ut
roy,41.16161,-112.02633,us,ut
salt lake city,40.76078,-111.89105,us,ut
sandy city,40.59161,-111.8841,us,ut
sandy hills,40.58106,-111.85077,us,ut
saratoga springs,40.34912,-111.90466,us,ut
south jordan heights,40.56384,-111.94938,us,ut
south jordan,40.56217,-111.92966,us,ut
south ogden,41.19189,-111.97133,us,ut
south salt lake,40.71884,-111.88827,us,ut
spanish fork,40.11496,-111.65492,us,ut
springville,40.16523,-111.61075,us,ut
syracuse,41.08939,-112.06467,us,ut
taylorsville,40.66772,-111.93883,us,ut
tooele,40.53078,-112.29828,us,ut
west jordan,40.60967,-111.9391,us,ut
west valley city,40.69161,-112.00105,us,ut
aberdeen,46.97537,-123.81572,us,wa
anacortes,48.5126,-122.61267,us,wa
arlington,48.19871,-122.12514,us,wa
auburn,47.30732,-122.22845,us,wa
battle ground,45.78095,-122.53343,us,wa
bellevue,47.61038,-122.20068,us,wa
bellingham,48.75955,-122.48822,us,wa
bonney lake,47.17705,-122.18651,us,wa
bothell,47.76232,-122.2054,us,wa
bremerton,47.56732,-122.63264,us,wa
burien,47.47038,-122.34679,us,wa
camas,45.58706,-122.39954,us,wa
centralia,46.71621,-122.9543,us,wa
cottage lake,47.74427,-122.07735,us,wa
covington,47.35818,-122.12216,us,wa
des moines,47.40177,-122.32429,us,wa
edmonds,47.81065,-122.37736,us,wa
ellensburg,46.99651,-120.54785,us,wa
everett,47.97898,-122.20208,us,wa
fairwood,47.44843,-122.15734,us,wa
federal way,47.32232,-122.31262,us,wa
five corners,45.68456,-122.5751,us,wa
frederickson,47.09621,-122.35873,us,wa
graham,47.05288,-122.29428,us,wa
hazel dell,45.67151,-122.66288,us,wa
issaquah,47.5301,-122.03262,us,wa
kenmore,47.75732,-122.24401,us,wa
kennewick,46.21125,-119.13723,us,wa
kent,47.38093,-122.23484,us,wa
kirkland,47.68149,-122.20874,us,wa
lacey,47.03426,-122.82319,us,wa
lake stevens,48.0151,-122.06374,us,wa
lakewood,47.17176,-122.51846,us,wa
longview,46.13817,-122.93817,us,wa
lynnwood,47.82093,-122.31513,us,wa
maple valley,47.39272,-122.04641,us,wa
martha lake,47.85093,-122.2393,us,wa
marysville,48.05176,-122.17708,us,wa
mercer island,47.57065,-122.22207,us,wa
mill creek,47.8601,-122.2043,us,wa
monroe,47.85538,-121.97096,us,wa
moses lake,47.13014,-119.27808,us,wa
mount vernon,48.42122,-122.33405,us,wa
mountlake terrace,47.78815,-122.30874,us,wa
mukilteo,47.94454,-122.30458,us,wa
north creek,47.81954,-122.17624,us,wa
oak harbor,48.29316,-122.64322,us,wa
olympia,47.03787,-122.9007,us,wa
opportunity,47.64995,-117.23991,us,wa
orchards,45.66651,-122.56093,us,wa
parkland,47.15538,-122.43401,us,wa
pasco,46.23958,-119.10057,us,wa
port angeles,48.11815,-123.43074,us,wa
pullman,46.73127,-117.17962,us,wa
puyallup,47.18538,-122.2929,us,wa
redmond,47.67399,-122.12151,us,wa
renton,47.48288,-122.21707,us,wa
richland,46.28569,-119.28446,us,wa
salmon creek,45.71067,-122.64899,us,wa
sammamish,47.64177,-122.0804,us,wa
seatac,47.44846,-122.29217,us,wa
seattle,47.60621,-122.33207,us,wa
shoreline,47.75565,-122.34152,us,wa
silverdale,47.64454,-122.69487,us,wa
south hill,47.14121,-122.27012,us,wa
spanaway,47.10399,-122.43457,us,wa
spokane,47.65966,-117.42908,us,wa
spokane valley,47.67323,-117.23937,us,wa
sunnyside,46.32374,-120.00865,us,wa
tacoma,47.25288,-122.44429,us,wa
tukwila,47.47399,-122.26096,us,wa
tumwater,47.00732,-122.90931,us,wa
university place,47.23565,-122.5504,us,wa
vancouver,45.63873,-122.66149,us,wa
walla walla,46.06458,-118.34302,us,wa
wenatchee,47.42346,-120.31035,us,wa
west lake sammamish,47.5776,-122.10123,us,wa
west lake stevens,47.99343,-122.1018,us,wa
bainbridge island,47.62621,-122.52124,us,wa
yakima,46.60207,-120.5059,us,wa
casper,42.86663,-106.31308,us,wy
cheyenne,41.13998,-104.82025,us,wy
gillette,44.29109,-105.50222,us,wy
laramie,41.31137,-105.5911,us,wy
rock springs,41.58746,-109.2029,us,wy
sheridan,44.79719,-106.95618,us,wy
american fork,40.3769,-111.79576,us,ut
kahului,20.88953,-156.47432,us,hi
kailua,21.40241,-157.74054,us,hi
kaneohe,21.39994,-157.79895,us,hi
kihei,20.76462,-156.44578,us,hi
makakilo city,21.34694,-158.08583,us,hi
mililani town,21.45,-158.00111,us,hi
pearl city,21.39734,-157.97516,us,hi
wahiawa,21.50279,-158.02464,us,hi
wailuku,20.89133,-156.50604,us,hi
waipahu,21.38667,-158.00917,us,hi
'ewa gentry,21.33999,-158.03039,us,hi
hilo,19.72991,-155.09073,us,hi
honolulu,21.30694,-157.85833,us,hi
eagle river,61.32139,-149.56778,us,ak
fairbanks,64.83778,-147.71639,us,ak
anchorage,61.21806,-149.90028,us,ak
badger,64.8,-147.53333,us,ak
milton,34.13216,-84.30067,us,ga
johns creek,34.02893,-84.19858,us,ga
cutler bay,25.5783,-80.3377,us,fl
alafaya,28.5641,-81.2114,us,fl
fort bragg,35.139,-79.00603,us,nc
city of milford (balance),41.22374,-73.06164,us,ct
butte-silver bow (balance),45.90194,-112.65708,us,mt
city of sammamish,47.60444,-122.03768,us,wa
silver firs,47.86602,-122.1551,us,wa
vineyard,38.46449,-121.34692,us,ca
wallingford center,41.44987,-72.81892,us,ct
bel air north,39.55429,-76.37309,us,md
bel air south,39.50506,-76.31977,us,md
setauket-east setauket,40.93064,-73.10179,us,ny
fort leonard wood,37.70573,-92.15717,us,mo
west bloomfield township,42.56891,-83.38356,us,mi
east lake-orient park,27.98269,-82.37878,us,fl
four corners,28.33287,-81.64738,us,fl
greater northdale,28.10545,-82.52594,us,fl
candler-mcafee,33.72672,-84.27246,us,ga
university,28.07389,-82.43902,us,fl
vero beach south,27.61638,-80.41308,us,fl
kendall west,25.7065,-80.4388,us,fl
palm river-clair mel,27.92386,-82.37939,us,fl
arden-arcade,38.6025,-121.37854,us,ca
bryn mawr-skyway,47.4943,-122.24092,us,wa
casa de oro-mount helix,32.76397,-116.96877,us,ca
florence-graham,33.96772,-118.24438,us,ca
fort hood,31.13489,-97.77561,us,tx
inglewood-finn hill,47.72049,-122.23167,us,wa
la crescenta-montrose,34.23216,-118.23529,us,ca
east hill-meridian,47.41052,-122.17369,us,wa
security-widefield,38.74728,-104.71439,us,co
union hill-novelty hill,47.67887,-122.02833,us,wa
west whittier-los nietos,33.976,-118.06909,us,ca
summerlin south,36.11708,-115.33001,us,nv
makakilo,21.35237,-158.08655,us,hi
schofield barracks,21.49837,-158.06515,us,hi
san tan valley,33.1911,-111.528,us,az
enchanted hills,35.33676,-106.59296,us,nm
west hills,34.19731,-118.64398,us,ca
oak hill,38.9258,-77.40156,us,va
bridgewater,40.60079,-74.64815,us,nj
warren township,40.60822,-74.51803,us,nj
fairfield heights,39.82861,-86.38224,us,in
randolph,40.84829,-74.58148,us,nj
hot springs national park,34.5317,-93.06377,us,ar
dixiana,33.74021,-86.64938,us,al
cranberry township,40.68496,-80.10714,us,pa
silver lake,34.08668,-118.27023,us,ca
echo park,34.07808,-118.26066,us,ca
bay minette,30.88296,-87.77305,us,al
edna,28.97859,-96.64609,us,tx
henderson,32.15322,-94.79938,us,tx
trinity,28.18085,-82.68177,us,fl
villas,26.55035,-81.8687,us,fl
red chute,32.55598,-93.61323,us,la
jessup,39.14927,-76.77525,us,md
delhi hills,39.09284,-84.61272,us,oh
turpin hills,39.11006,-84.37994,us,oh
lugoff,34.22737,-80.68925,us,sc
buda,30.08521,-97.84028,us,tx
boaz,34.20065,-86.16637,us,al
brewton,31.10518,-87.07219,us,al
brook highland,33.43566,-86.67388,us,al
cahaba heights,33.464,-86.73193,us,al
calera,33.1029,-86.7536,us,al
chelsea,33.34011,-86.63026,us,al
chickasaw,30.7638,-88.07472,us,al
childersburg,33.27817,-86.35498,us,al
clanton,32.83874,-86.62943,us,al
clay,33.7026,-86.59971,us,al
cullman,34.17482,-86.84361,us,al
daleville,31.31017,-85.71299,us,al
danville,34.41454,-87.08751,us,al
demopolis,32.51764,-87.8364,us,al
eufaula,31.89127,-85.14549,us,al
fairfield,33.48594,-86.91194,us,al
foley,30.40659,-87.6836,us,al
forestdale,33.57011,-86.89638,us,al
fort payne,34.44425,-85.71969,us,al
fultondale,33.60483,-86.79388,us,al
gardendale,33.6601,-86.81277,us,al
glencoe,33.95704,-85.93247,us,al
grayson valley,33.64816,-86.63943,us,al
greenville,31.8296,-86.61775,us,al
gulf shores,30.24604,-87.70082,us,al
guntersville,34.35815,-86.2947,us,al
hamilton,34.14232,-87.98864,us,al
hartselle,34.44343,-86.93528,us,al
harvest,34.85564,-86.75083,us,al
irondale,33.53816,-86.70721,us,al
jackson,31.50905,-87.89444,us,al
jacksonville,33.81371,-85.76135,us,al
jasper,33.83122,-87.27751,us,al
lake purdy,33.43011,-86.68054,us,al
lanett,32.86874,-85.1905,us,al
leeds,33.54816,-86.54443,us,al
lincoln,33.61316,-86.11831,us,al
meadowbrook,33.40205,-86.69665,us,al
meridianville,34.85148,-86.57222,us,al
midfield,33.4615,-86.90888,us,al
millbrook,32.47986,-86.36192,us,al
monroeville,31.52794,-87.32471,us,al
montevallo,33.10067,-86.86416,us,al
moody,33.59094,-86.49082,us,al
moores mill,34.84398,-86.51832,us,al
muscle shoals,34.74481,-87.66753,us,al
oneonta,33.94815,-86.47276,us,al
opp,31.28267,-86.25551,us,al
orange beach,30.29437,-87.57359,us,al
ozark,31.45906,-85.64049,us,al
pell city,33.58621,-86.28609,us,al
pike road,32.28431,-86.10302,us,al
pinson,33.68899,-86.68332,us,al
pleasant grove,33.49094,-86.97027,us,al
rainbow city,33.95482,-86.04192,us,al
roanoke,33.15123,-85.37217,us,al
robertsdale,30.5538,-87.71193,us,al
russellville,34.50787,-87.72864,us,al
saks,33.69871,-85.83969,us,al
saraland,30.82074,-88.07056,us,al
satsuma,30.85324,-88.05611,us,al
scottsboro,34.67231,-86.03415,us,al
sheffield,34.76509,-87.69864,us,al
southside,33.92454,-86.02247,us,al
spanish fort,30.67491,-87.91527,us,al
sylacauga,33.17317,-86.25164,us,al
tarrant,33.58344,-86.77277,us,al
theodore,30.54769,-88.17528,us,al
tuscumbia,34.7312,-87.70253,us,al
tuskegee,32.42403,-85.69162,us,al
valley,32.81874,-85.17939,us,al
wetumpka,32.54374,-86.21191,us,al
alma,35.47787,-94.22188,us,ar
arkadelphia,34.12093,-93.05378,us,ar
batesville,35.7698,-91.64097,us,ar
beebe,35.07064,-91.87959,us,ar
berryville,36.36479,-93.56797,us,ar
camden,33.58456,-92.83433,us,ar
centerton,36.3598,-94.28521,us,ar
clarksville,35.47147,-93.46657,us,ar
crossett,33.12818,-91.96124,us,ar
de queen,34.03789,-94.34132,us,ar
east end,34.55065,-92.34099,us,ar
farmington,36.04202,-94.24715,us,ar
greenwood,35.21565,-94.25577,us,ar
harrison,36.22979,-93.10768,us,ar
heber springs,35.49147,-92.03126,us,ar
helena,34.52955,-90.59177,us,ar
hope,33.66706,-93.59157,us,ar
hot springs village,34.67204,-92.99879,us,ar
lowell,36.25535,-94.13076,us,ar
magnolia,33.26707,-93.23933,us,ar
malvern,34.36231,-92.81295,us,ar
marion,35.21453,-90.19648,us,ar
mena,34.58622,-94.23966,us,ar
monticello,33.629,-91.79096,us,ar
morrilton,35.15092,-92.74405,us,ar
mountain home,36.33534,-92.38516,us,ar
newport,35.6048,-91.2818,us,ar
osceola,35.70508,-89.96953,us,ar
pocahontas,36.26146,-90.97123,us,ar
stuttgart,34.50037,-91.55263,us,ar
trumann,35.67369,-90.50733,us,ar
warren,33.61261,-92.06458,us,ar
west helena,34.55066,-90.64177,us,ar
white hall,34.27399,-92.09098,us,ar
