name,lat,long,country,state
Bay Minette,30.88296,-87.77305,US,AL
Edna,28.97859,-96.64609,US,TX
Bayou La Batre,30.40352,-88.24852,US,AL
Henderson,32.15322,-94.79938,US,TX
Natalia,29.18968,-98.86253,US,TX
Bear Creek,34.27482,-87.70058,US,AL
Fort Hunt,38.73289,-77.05803,US,VA
Yorktown,37.23876,-76.50967,US,VA
Brighton,33.43428,-86.94721,US,AL
Ocean View,38.54511,-75.08907,US,DE
Berry,33.65983,-87.60001,US,AL
Trinity,28.18085,-82.68177,US,FL
Villas,26.55035,-81.8687,US,FL
Bessemer,33.40178,-86.95444,US,AL
Aurora,39.057,-84.90134,US,IN
New Pekin,38.50506,-86.01692,US,IN
Stockton,39.43807,-99.2651,US,KS
Paducah,37.08339,-88.60005,US,KY
Monticello,32.59653,-91.394,US,LA
Red Chute,32.55598,-93.61323,US,LA
Jessup,39.14927,-76.77525,US,MD
Birmingham,33.52066,-86.80249,US,AL
Delhi Hills,39.09284,-84.61272,US,OH
Turpin Hills,39.11006,-84.37994,US,OH
Lugoff,34.22737,-80.68925,US,SC
Blountsville,34.08149,-86.5911,US,AL
Blue Ridge,32.49264,-86.19052,US,AL
Buda,30.08521,-97.84028,US,TX
Boaz,34.20065,-86.16637,US,AL
Brent,32.93735,-87.16472,US,AL
Brewton,31.10518,-87.07219,US,AL
Bridgeport,34.94758,-85.71442,US,AL
Brook Highland,33.43566,-86.67388,US,AL
Brookside,33.63788,-86.91666,US,AL
Brookwood,33.25567,-87.32083,US,AL
Brundidge,31.72016,-85.81606,US,AL
Butler,32.08959,-88.22197,US,AL
Bynum,33.61316,-85.96108,US,AL
Cahaba Heights,33.464,-86.73193,US,AL
Calera,33.1029,-86.7536,US,AL
Camden,31.99098,-87.29055,US,AL
Camp Hill,32.80041,-85.65357,US,AL
Carbon Hill,33.89177,-87.52612,US,AL
Carrollton,33.26179,-88.09503,US,AL
Cedar Bluff,34.22009,-85.60774,US,AL
Center Point,33.64566,-86.6836,US,AL
Centre,34.15204,-85.67885,US,AL
Centreville,32.9462,-87.11669,US,AL
Chalkville,33.65316,-86.64777,US,AL
Chatom,31.46517,-88.25446,US,AL
Chelsea,33.34011,-86.63026,US,AL
Cherokee,34.75703,-87.97281,US,AL
Chickasaw,30.7638,-88.07472,US,AL
Childersburg,33.27817,-86.35498,US,AL
Choccolocco,33.65927,-85.70357,US,AL
Citronelle,31.09073,-88.22806,US,AL
Clanton,32.83874,-86.62943,US,AL
Clay,33.7026,-86.59971,US,AL
Clayton,31.87822,-85.44966,US,AL
Cleveland,33.99093,-86.57749,US,AL
Clio,31.70878,-85.6105,US,AL
Coaling,33.15901,-87.34083,US,AL
Collinsville,34.26398,-85.86053,US,AL
Columbiana,33.17817,-86.60721,US,AL
Concord,33.46761,-87.03111,US,AL
Coosada,32.49791,-86.33136,US,AL
Cordova,33.75983,-87.18333,US,AL
Cottonwood,31.04879,-85.30493,US,AL
Cowarts,31.20018,-85.30465,US,AL
Creola,30.89185,-88.03972,US,AL
Crossville,34.28759,-85.99414,US,AL
Cullman,34.17482,-86.84361,US,AL
Dadeville,32.83124,-85.76357,US,AL
Daleville,31.31017,-85.71299,US,AL
Danville,34.41454,-87.08751,US,AL
Daphne,30.60353,-87.9036,US,AL
Dauphin Island,30.25548,-88.10972,US,AL
Deatsville,32.60819,-86.39581,US,AL
Decatur,34.60593,-86.98334,US,AL
Demopolis,32.51764,-87.8364,US,AL
Dora,33.72872,-87.09028,US,AL
Dothan,31.22323,-85.39049,US,AL
Double Springs,34.14649,-87.40224,US,AL
East Brewton,31.09323,-87.06275,US,AL
East Florence,34.80953,-87.64947,US,AL
Eclectic,32.63541,-86.03441,US,AL
Elberta,30.41436,-87.59776,US,AL
Enterprise,31.31517,-85.85522,US,AL
Eufaula,31.89127,-85.14549,US,AL
Eutaw,32.84068,-87.88751,US,AL
Evergreen,31.4335,-86.95692,US,AL
Fairfield,33.48594,-86.91194,US,AL
Fairhope,30.52297,-87.90333,US,AL
Falkville,34.36843,-86.90862,US,AL
Fayette,33.68455,-87.83085,US,AL
Fayetteville,33.14567,-86.40581,US,AL
Flint City,34.52315,-86.97029,US,AL
Florala,31.00518,-86.328,US,AL
Florence,34.79981,-87.67725,US,AL
Flomaton,31.00018,-87.26081,US,AL
Foley,30.40659,-87.6836,US,AL
Forestdale,33.57011,-86.89638,US,AL
Fort Deposit,31.98459,-86.57859,US,AL
Fort Payne,34.44425,-85.71969,US,AL
Frisco City,31.4335,-87.40138,US,AL
Fultondale,33.60483,-86.79388,US,AL
Fyffe,34.44676,-85.90414,US,AL
Gadsden,34.01426,-86.00664,US,AL
Gardendale,33.6601,-86.81277,US,AL
Geneva,31.03296,-85.86382,US,AL
Georgiana,31.6371,-86.74192,US,AL
Glencoe,33.95704,-85.93247,US,AL
Good Hope,34.11593,-86.86361,US,AL
Goodwater,33.06567,-86.0533,US,AL
Gordo,33.32012,-87.9028,US,AL
Grand Bay,30.47631,-88.34223,US,AL
Grayson Valley,33.64816,-86.63943,US,AL
Graysville,33.62066,-86.97138,US,AL
Greensboro,32.70458,-87.59584,US,AL
Greenville,31.8296,-86.61775,US,AL
Grove Hill,31.70877,-87.77722,US,AL
Guin,33.96566,-87.91475,US,AL
Gulf Shores,30.24604,-87.70082,US,AL
Guntersville,34.35815,-86.2947,US,AL
Hackleburg,34.27732,-87.82864,US,AL
Haleyville,34.22649,-87.62141,US,AL
Hamilton,34.14232,-87.98864,US,AL
Hanceville,34.06065,-86.7675,US,AL
Harpersville,33.344,-86.43804,US,AL
Hartford,31.1024,-85.69688,US,AL
Hartselle,34.44343,-86.93528,US,AL
Harvest,34.85564,-86.75083,US,AL
Hayneville,32.18403,-86.58025,US,AL
Hazel Green,34.93231,-86.57194,US,AL
Headland,31.35128,-85.34216,US,AL
Heflin,33.64899,-85.58746,US,AL
Helena,33.29622,-86.8436,US,AL
Henagar,34.63508,-85.76719,US,AL
Hokes Bluff,33.99815,-85.86636,US,AL
Holt,33.23401,-87.48445,US,AL
Holtville,32.63624,-86.32664,US,AL
Homewood,33.47177,-86.80082,US,AL
Hoover,33.40539,-86.81138,US,AL
Hueytown,33.45122,-86.99666,US,AL
Huguley,32.83457,-85.22966,US,AL
Huntsville,34.73037,-86.5861,US,AL
Indian Springs Village,33.35539,-86.75443,US,AL
Inverness,32.01488,-85.74606,US,AL
Irondale,33.53816,-86.70721,US,AL
Jackson,31.50905,-87.89444,US,AL
Jacksonville,33.81371,-85.76135,US,AL
Jasper,33.83122,-87.27751,US,AL
Jemison,32.95985,-86.74665,US,AL
Killen,34.86286,-87.53753,US,AL
Kimberly,33.77344,-86.81388,US,AL
Kinsey,31.29906,-85.34438,US,AL
Ladonia,32.4682,-85.0791,US,AL
Lafayette,32.89985,-85.40106,US,AL
Lake Purdy,33.43011,-86.68054,US,AL
Lake View,33.28067,-87.1375,US,AL
Lanett,32.86874,-85.1905,US,AL
Leeds,33.54816,-86.54443,US,AL
Leesburg,34.17982,-85.76136,US,AL
Level Plains,31.29962,-85.77799,US,AL
Linden,32.30625,-87.79807,US,AL
Lincoln,33.61316,-86.11831,US,AL
Lineville,33.31067,-85.75441,US,AL
Lipscomb,33.42566,-86.92666,US,AL
Littleville,34.59065,-87.67697,US,AL
Livingston,32.5843,-88.18725,US,AL
Locust Fork,33.9076,-86.61527,US,AL
Loxley,30.61825,-87.75305,US,AL
Luverne,31.71655,-86.26385,US,AL
Madison,34.69926,-86.74833,US,AL
Malvern,31.13934,-85.5191,US,AL
Marbury,32.70124,-86.47109,US,AL
Margaret,33.68621,-86.47498,US,AL
Marion,32.63235,-87.31917,US,AL
Meadowbrook,33.40205,-86.69665,US,AL
Meridianville,34.85148,-86.57222,US,AL
Midfield,33.4615,-86.90888,US,AL
Midland City,31.31906,-85.49382,US,AL
Mignon,33.18345,-86.26109,US,AL
Millbrook,32.47986,-86.36192,US,AL
Millport,33.56345,-88.08142,US,AL
Minor,33.53733,-86.94055,US,AL
Mobile,30.69436,-88.04305,US,AL
Monroeville,31.52794,-87.32471,US,AL
Montevallo,33.10067,-86.86416,US,AL
Montgomery,32.36681,-86.29997,US,AL
Moody,33.59094,-86.49082,US,AL
Moores Mill,34.84398,-86.51832,US,AL
Morris,33.74816,-86.8086,US,AL
Mosses,32.17459,-86.67192,US,AL
Moulton,34.48121,-87.29335,US,AL
Moundville,32.99762,-87.63001,US,AL
Mount Olive,33.67094,-86.8561,US,AL
Mount Vernon,31.08518,-88.01333,US,AL
Mountain Brook,33.50094,-86.75221,US,AL
Munford,33.52983,-85.9508,US,AL
Muscle Shoals,34.74481,-87.66753,US,AL
New Brockton,31.38572,-85.92939,US,AL
New Hope,34.53703,-86.39443,US,AL
New Market,34.91009,-86.42777,US,AL
Newton,31.33517,-85.60521,US,AL
North Bibb,33.20401,-87.15305,US,AL
Northport,33.22901,-87.57723,US,AL
Odenville,33.67732,-86.39665,US,AL
Ohatchee,33.78343,-86.00247,US,AL
Opelika,32.64541,-85.37828,US,AL
Oneonta,33.94815,-86.47276,US,AL
Opp,31.28267,-86.25551,US,AL
Orange Beach,30.29437,-87.57359,US,AL
Owens Cross Roads,34.58815,-86.45888,US,AL
Oxford,33.61427,-85.83496,US,AL
Ozark,31.45906,-85.64049,US,AL
Pelham,33.28567,-86.80999,US,AL
Pell City,33.58621,-86.28609,US,AL
Phenix City,32.47098,-85.00077,US,AL
Phil Campbell,34.35093,-87.70642,US,AL
Piedmont,33.92455,-85.61135,US,AL
Pike Road,32.28431,-86.10302,US,AL
Pine Level,32.58374,-86.46553,US,AL
Pinson,33.68899,-86.68332,US,AL
Pleasant Grove,33.49094,-86.97027,US,AL
Point Clear,30.47408,-87.91916,US,AL
Prattville,32.46402,-86.4597,US,AL
Priceville,34.52509,-86.89473,US,AL
Prichard,30.7388,-88.07889,US,AL
Ragland,33.74454,-86.15581,US,AL
Rainbow City,33.95482,-86.04192,US,AL
Rainsville,34.49425,-85.84775,US,AL
Red Bay,34.43982,-88.14087,US,AL
Reform,33.37845,-88.0153,US,AL
Rehobeth,31.12296,-85.45271,US,AL
Riverside,33.60621,-86.20442,US,AL
Roanoke,33.15123,-85.37217,US,AL
Robertsdale,30.5538,-87.71193,US,AL
Rock Creek,33.47705,-87.08027,US,AL
Rockford,32.88957,-86.21969,US,AL
Rogersville,34.82578,-87.29676,US,AL
Russellville,34.50787,-87.72864,US,AL
Saks,33.69871,-85.83969,US,AL
Samson,31.11295,-86.04605,US,AL
Saraland,30.82074,-88.07056,US,AL
Sardis City,34.17426,-86.12275,US,AL
Satsuma,30.85324,-88.05611,US,AL
Scottsboro,34.67231,-86.03415,US,AL
Selma,32.40736,-87.0211,US,AL
Sheffield,34.76509,-87.69864,US,AL
Shelby,33.1104,-86.58415,US,AL
Slocomb,31.10823,-85.59438,US,AL
Smiths Station,32.54014,-85.09855,US,AL
Smoke Rise,33.89177,-86.82027,US,AL
Southside,33.92454,-86.02247,US,AL
Spanish Fort,30.67491,-87.91527,US,AL
Springville,33.7751,-86.47165,US,AL
Steele,33.93982,-86.20164,US,AL
Stevenson,34.86869,-85.83942,US,AL
Stewartville,33.07929,-86.24442,US,AL
Sulligent,33.90177,-88.13448,US,AL
Sumiton,33.75566,-87.05,US,AL
Sylacauga,33.17317,-86.25164,US,AL
Sylvan Springs,33.51566,-87.01499,US,AL
Sylvania,34.56231,-85.81247,US,AL
Talladega,33.43594,-86.1058,US,AL
Tallassee,32.53597,-85.89329,US,AL
Tarrant,33.58344,-86.77277,US,AL
Taylor,31.1649,-85.46827,US,AL
Taylor,31.97543,-86.2333,US,AL
Theodore,30.54769,-88.17528,US,AL
Thomasville,31.91349,-87.73584,US,AL
Thorsby,32.91568,-86.71582,US,AL
Tillmans Corner,30.59019,-88.17084,US,AL
Town Creek,34.6812,-87.40613,US,AL
Trinity,34.60676,-87.08835,US,AL
Troy,31.80877,-85.96995,US,AL
Trussville,33.61983,-86.60888,US,AL
Tuscaloosa,33.20984,-87.56917,US,AL
Tuscumbia,34.7312,-87.70253,US,AL
Tuskegee,32.42403,-85.69162,US,AL
Union Springs,32.14432,-85.71495,US,AL
Uniontown,32.44958,-87.51417,US,AL
Valley,32.81874,-85.17939,US,AL
Valley Grande,32.50902,-86.98749,US,AL
Vandiver,33.47066,-86.51332,US,AL
Vance,33.17428,-87.23361,US,AL
Vernon,33.75705,-88.10892,US,AL
Vestavia Hills,33.44872,-86.78777,US,AL
Vincent,33.38455,-86.41192,US,AL
Warrior,33.81427,-86.80944,US,AL
Weaver,33.75205,-85.81135,US,AL
Webb,31.26045,-85.27327,US,AL
Wedowee,33.309,-85.48467,US,AL
West Blocton,33.11817,-87.125,US,AL
Westover,33.34955,-86.53582,US,AL
Wetumpka,32.54374,-86.21191,US,AL
Whitesboro,34.16343,-86.06942,US,AL
Wilsonville,33.23428,-86.48359,US,AL
Winfield,33.92899,-87.81725,US,AL
Woodstock,33.20678,-87.15,US,AL
York,32.48625,-88.29642,US,AL
Alexander,34.62954,-92.44127,US,AR
Alma,35.47787,-94.22188,US,AR
Arkadelphia,34.12093,-93.05378,US,AR
Arkansas City,33.60872,-91.20678,US,AR
Ash Flat,36.22396,-91.60848,US,AR
Ashdown,33.67429,-94.13131,US,AR
Atkins,35.24647,-92.93656,US,AR
Augusta,35.28231,-91.36541,US,AR
Austin,34.99842,-91.98376,US,AR
Bald Knob,35.30981,-91.56791,US,AR
Barling,35.32565,-94.3016,US,AR
Batesville,35.7698,-91.64097,US,AR
Bay,35.7423,-90.56233,US,AR
Beebe,35.07064,-91.87959,US,AR
Bella Vista,36.4807,-94.27134,US,AR
Benton,34.56454,-92.58683,US,AR
Bentonville,36.37285,-94.20882,US,AR
Berryville,36.36479,-93.56797,US,AR
Bethel Heights,36.21424,-94.12937,US,AR
Blytheville,35.9273,-89.91898,US,AR
Bono,35.90868,-90.80262,US,AR
Booneville,35.14009,-93.92159,US,AR
Brinkley,34.88787,-91.19457,US,AR
Brookland,35.90007,-90.58205,US,AR
Bryant,34.59593,-92.48905,US,AR
Bull Shoals,36.38396,-92.58155,US,AR
Cabot,34.97453,-92.01653,US,AR
Calico Rock,36.11951,-92.13599,US,AR
Camden,33.58456,-92.83433,US,AR
Caraway,35.75813,-90.32232,US,AR
Carlisle,34.78315,-91.74652,US,AR
Cave City,35.94174,-91.54847,US,AR
Cave Springs,36.26341,-94.23187,US,AR
Cedarville,35.56981,-94.36688,US,AR
Centerton,36.3598,-94.28521,US,AR
Charleston,35.29704,-94.03632,US,AR
Cherokee Village,36.29784,-91.51597,US,AR
Clarendon,34.69315,-91.31374,US,AR
Clarksville,35.47147,-93.46657,US,AR
Clinton,35.59147,-92.46044,US,AR
Coal Hill,35.43731,-93.67297,US,AR
Conway,35.0887,-92.4421,US,AR
Corning,36.40784,-90.57983,US,AR
Crossett,33.12818,-91.96124,US,AR
Danville,35.05398,-93.39352,US,AR
Dardanelle,35.22314,-93.15795,US,AR
De Queen,34.03789,-94.34132,US,AR
De Witt,34.29288,-91.3379,US,AR
Decatur,36.33591,-94.46077,US,AR
Dermott,33.52539,-91.43595,US,AR
Des Arc,34.97704,-91.49513,US,AR
Diaz,35.63841,-91.26513,US,AR
Dierks,34.11928,-94.01658,US,AR
Dover,35.40147,-93.11434,US,AR
Dumas,33.88705,-91.49179,US,AR
Earle,35.27509,-90.46677,US,AR
East End,34.55065,-92.34099,US,AR
El Dorado,33.20763,-92.66627,US,AR
Elkins,36.00147,-94.00825,US,AR
Elm Springs,36.20619,-94.23437,US,AR
England,34.54426,-91.96903,US,AR
Eudora,33.10957,-91.26206,US,AR
Eureka Springs,36.40118,-93.73797,US,AR
Fairfield Bay,35.59424,-92.27793,US,AR
Farmington,36.04202,-94.24715,US,AR
Fayetteville,36.06258,-94.15743,US,AR
Flippin,36.27896,-92.59711,US,AR
Foreman,33.72178,-94.39687,US,AR
Fordyce,33.81372,-92.41293,US,AR
Forrest City,35.00815,-90.78983,US,AR
Fort Smith,35.38592,-94.39855,US,AR
Gassville,36.28312,-92.49405,US,AR
Gentry,36.26758,-94.48466,US,AR
Gibson,34.88426,-92.2357,US,AR
Glenwood,34.32677,-93.55074,US,AR
Gosnell,35.95979,-89.97203,US,AR
Goshen,36.10119,-93.99131,US,AR
Gravel Ridge,34.86842,-92.1907,US,AR
Gravette,36.42202,-94.45355,US,AR
Green Forest,36.33535,-93.43602,US,AR
Greenbrier,35.23397,-92.38765,US,AR
Greenland,35.99425,-94.1752,US,AR
Greenwood,35.21565,-94.25577,US,AR
Gurdon,33.92094,-93.15406,US,AR
Hamburg,33.22818,-91.79763,US,AR
Hampton,33.53789,-92.46988,US,AR
Harrisburg,35.56425,-90.71678,US,AR
Harrison,36.22979,-93.10768,US,AR
Haskell,34.50148,-92.63655,US,AR
Hazen,34.78093,-91.58097,US,AR
Heber Springs,35.49147,-92.03126,US,AR
Helena,34.52955,-90.59177,US,AR
Highland,36.2759,-91.52403,US,AR
Holiday Island,36.48535,-93.73214,US,AR
Hope,33.66706,-93.59157,US,AR
Horatio,33.93845,-94.35715,US,AR
Horseshoe Bend,36.22923,-91.76431,US,AR
Hot Springs,34.5037,-93.05518,US,AR
Hot Springs Village,34.67204,-92.99879,US,AR
Hoxie,36.05035,-90.97512,US,AR
Hughes,34.94926,-90.47149,US,AR
Huntsville,36.08619,-93.7413,US,AR
Jacksonville,34.8662,-92.11015,US,AR
Jasper,36.00813,-93.18657,US,AR
Johnson,36.13286,-94.16548,US,AR
Jonesboro,35.8423,-90.70428,US,AR
Judsonia,35.27009,-91.63986,US,AR
Kensett,35.23175,-91.66764,US,AR
Lake City,35.81619,-90.43427,US,AR
Lake Hamilton,34.42453,-93.09518,US,AR
Lake Village,33.32873,-91.28178,US,AR
Lamar,35.44064,-93.38796,US,AR
Landmark,34.6112,-92.3196,US,AR
Lavaca,35.3362,-94.17326,US,AR
Leachville,35.93591,-90.25788,US,AR
Lepanto,35.61119,-90.32982,US,AR
Lewisville,33.35846,-93.57768,US,AR
Lincoln,35.94953,-94.42355,US,AR
Little Flock,36.38591,-94.1352,US,AR
Little Rock,34.74648,-92.28959,US,AR
London,35.32897,-93.25296,US,AR
Lonoke,34.78398,-91.89986,US,AR
Lowell,36.25535,-94.13076,US,AR
Luxora,35.75619,-89.92814,US,AR
Magnolia,33.26707,-93.23933,US,AR
Malvern,34.36231,-92.81295,US,AR
Manila,35.88007,-90.16704,US,AR
Mansfield,35.05954,-94.25271,US,AR
Marianna,34.77371,-90.75761,US,AR
Marion,35.21453,-90.19648,US,AR
Marked Tree,35.53286,-90.42066,US,AR
Marmaduke,36.18701,-90.38316,US,AR
Marshall,35.90896,-92.63127,US,AR
Marvell,34.55566,-90.91289,US,AR
Maumelle,34.86676,-92.40432,US,AR
Mayflower,34.95703,-92.42738,US,AR
McAlmont,34.80842,-92.18181,US,AR
McCrory,35.2562,-91.20012,US,AR
McGehee,33.629,-91.39956,US,AR
Melbourne,36.05951,-91.90848,US,AR
Mena,34.58622,-94.23966,US,AR
Midway,36.38534,-92.46183,US,AR
Mineral Springs,33.87512,-93.9138,US,AR
Monette,35.89063,-90.34427,US,AR
Monticello,33.629,-91.79096,US,AR
Morrilton,35.15092,-92.74405,US,AR
Mount Ida,34.55676,-93.63408,US,AR
Mountain View,35.86841,-92.11765,US,AR
Mountain Home,36.33534,-92.38516,US,AR
Mulberry,35.50064,-94.05159,US,AR
Murfreesboro,34.06233,-93.6899,US,AR
Nashville,33.94567,-93.84713,US,AR
Newark,35.70174,-91.44152,US,AR
Newport,35.6048,-91.2818,US,AR
North Crossett,33.16568,-91.94152,US,AR
North Little Rock,34.76954,-92.26709,US,AR
Ola,35.03231,-93.22323,US,AR
Osceola,35.70508,-89.96953,US,AR
Ozark,35.48703,-93.8277,US,AR
Paragould,36.0584,-90.49733,US,AR
Paris,35.29203,-93.72992,US,AR
Parkin,35.26342,-90.57122,US,AR
Pea Ridge,33.92066,-91.33679,US,AR
Pea Ridge,36.45396,-94.1152,US,AR
Perryville,35.00481,-92.80267,US,AR
Piggott,36.38284,-90.19065,US,AR
Pine Bluff,34.22843,-92.0032,US,AR
Piney,34.50314,-93.12602,US,AR
Pocahontas,36.26146,-90.97123,US,AR
Pottsville,35.24814,-93.04906,US,AR
Prairie Creek,36.34202,-94.06187,US,AR
Prairie Grove,35.97591,-94.31771,US,AR
Prescott,33.80261,-93.38101,US,AR
Rector,36.26312,-90.2926,US,AR
Redfield,34.4451,-92.1832,US,AR
Rison,33.95843,-92.19015,US,AR
Rockwell,34.46426,-93.13379,US,AR
Rogers,36.33202,-94.11854,US,AR
Russellville,35.27842,-93.13379,US,AR
Salem,36.37118,-91.82265,US,AR
Salem,34.62898,-92.55822,US,AR
Searcy,35.25064,-91.73625,US,AR
Shannon Hills,34.62009,-92.39543,US,AR
Sheridan,34.30704,-92.40127,US,AR
Siloam Springs,36.18814,-94.5405,US,AR
Smackover,33.36485,-92.72488,US,AR
Springdale,36.18674,-94.12881,US,AR
Stamps,33.3654,-93.49518,US,AR
Star City,33.94288,-91.84347,US,AR
Stuttgart,34.50037,-91.55263,US,AR
Sulphur Springs,34.18065,-92.12348,US,AR
Texarkana,33.44179,-94.03769,US,AR
Tontitown,36.17786,-94.23354,US,AR
Trumann,35.67369,-90.50733,US,AR
Tuckerman,35.73063,-91.19846,US,AR
Van Buren,35.43676,-94.34827,US,AR
Vilonia,35.08398,-92.20793,US,AR
Waldo,33.35151,-93.29573,US,AR
Waldron,34.89843,-94.09076,US,AR
Walnut Ridge,36.0684,-90.95595,US,AR
Ward,35.03036,-91.95042,US,AR
Warren,33.61261,-92.06458,US,AR
West Crossett,33.14096,-91.99402,US,AR
West Fork,35.92425,-94.18854,US,AR
West Helena,34.55066,-90.64177,US,AR
West Memphis,35.14648,-90.18454,US,AR
White Hall,34.27399,-92.09098,US,AR
Wrightsville,34.60232,-92.21681,US,AR
Wynne,35.22453,-90.78678,US,AR
Yellville,36.22618,-92.68489,US,AR
"Washington, D.C.",38.89511,-77.03637,US,DC
Bear,39.62928,-75.65826,US,DE
Bellefonte,39.76622,-75.50936,US,DE
Bethany Beach,38.53956,-75.05518,US,DE
Blades,38.63567,-75.60993,US,DE
Bridgeville,38.74261,-75.60437,US,DE
Brookside,39.66706,-75.72688,US,DE
Camden,39.11345,-75.54187,US,DE
Cheswold,39.21928,-75.58576,US,DE
Claymont,39.80067,-75.45964,US,DE
Clayton,39.29067,-75.63437,US,DE
Delaware City,39.57789,-75.58881,US,DE
Delmar,38.45651,-75.57715,US,DE
Dover,39.15817,-75.52437,US,DE
Edgemoor,39.75011,-75.49964,US,DE
Elsmere,39.73928,-75.59798,US,DE
Felton,39.00845,-75.57798,US,DE
Georgetown,38.69011,-75.38547,US,DE
Glasgow,39.60483,-75.74521,US,DE
Greenville,39.779,-75.59826,US,DE
Harrington,38.92372,-75.5777,US,DE
Highland Acres,39.12095,-75.52187,US,DE
Hockessin,39.78761,-75.6966,US,DE
Kent Acres,39.13178,-75.52492,US,DE
Laurel,38.5565,-75.57131,US,DE
Lewes,38.77456,-75.13935,US,DE
Long Neck,38.62011,-75.15074,US,DE
Middletown,39.44956,-75.71632,US,DE
Milford,38.91261,-75.42797,US,DE
Millsboro,38.5915,-75.2913,US,DE
Milton,38.77761,-75.30991,US,DE
New Castle,39.66206,-75.56631,US,DE
Newark,39.68372,-75.74966,US,DE
Newport,39.71372,-75.60937,US,DE
North Star,39.76122,-75.7191,US,DE
Pike Creek,39.73095,-75.7041,US,DE
Pike Creek Valley,39.73622,-75.69827,US,DE
Rehoboth Beach,38.72095,-75.07601,US,DE
Riverview,39.0265,-75.51076,US,DE
Rodney Village,39.13206,-75.53242,US,DE
Seaford,38.64123,-75.61104,US,DE
Selbyville,38.46039,-75.22074,US,DE
Smyrna,39.29983,-75.60465,US,DE
Townsend,39.39511,-75.6916,US,DE
Wilmington,39.74595,-75.54659,US,DE
Wilmington Manor,39.68678,-75.58437,US,DE
Wyoming,39.11817,-75.55881,US,DE
Alachua,29.75163,-82.42483,US,FL
Allapattah,25.81454,-80.22394,US,FL
Altamonte Springs,28.66111,-81.36562,US,FL
Alturas,27.87169,-81.71508,US,FL
Alva,26.71562,-81.61008,US,FL
Andover,25.96843,-80.21283,US,FL
Anna Maria,27.53115,-82.73343,US,FL
Apalachicola,29.726,-84.9856,US,FL
Apollo Beach,27.77308,-82.40759,US,FL
Apopka,28.67617,-81.51186,US,FL
Arcadia,27.21588,-81.85842,US,FL
Archer,29.52997,-82.519,US,FL
Asbury Lake,30.04913,-81.82149,US,FL
Astatula,28.70972,-81.73285,US,FL
Astor,29.16248,-81.52535,US,FL
Atlantic Beach,30.33441,-81.3987,US,FL
Atlantis,26.5909,-80.10088,US,FL
Auburndale,28.0653,-81.78869,US,FL
Aventura,25.95648,-80.13921,US,FL
Avon Park,27.59587,-81.50619,US,FL
Azalea Park,28.54111,-81.30062,US,FL
Babson Park,27.83197,-81.5223,US,FL
Bagdad,30.5988,-87.03223,US,FL
Bal Harbour,25.89176,-80.12699,US,FL
Baldwin,30.30274,-81.97539,US,FL
Balm,27.75947,-82.2612,US,FL
Bartow,27.89641,-81.84314,US,FL
Bay Harbor Islands,25.88759,-80.13116,US,FL
Bay Hill,28.46806,-81.51618,US,FL
Bay Pines,27.81419,-82.77816,US,FL
Bayonet Point,28.32667,-82.68343,US,FL
Bayshore Gardens,27.42532,-82.59038,US,FL
Beacon Square,28.20862,-82.75538,US,FL
Bee Ridge,27.28394,-82.48065,US,FL
Belle Glade,26.68451,-80.66756,US,FL
Belle Glade Camp,26.65757,-80.68284,US,FL
Belle Isle,28.45834,-81.35924,US,FL
Belleair,27.93585,-82.80621,US,FL
Belleair Beach,27.92308,-82.84316,US,FL
Belleair Bluffs,27.92141,-82.81705,US,FL
Belleview,29.05526,-82.06231,US,FL
Bellview,30.46159,-87.31497,US,FL
Beverly Hills,28.91692,-82.45815,US,FL
Big Coppitt Key,24.59653,-81.66009,US,FL
Big Pine Key,24.66987,-81.35397,US,FL
Biscayne Park,25.8826,-80.1806,US,FL
Bithlo,28.55472,-81.10645,US,FL
Black Diamond,28.91248,-82.48593,US,FL
Bloomingdale,27.89364,-82.24037,US,FL
Blountstown,30.44379,-85.04744,US,FL
Boca Del Mar,26.34508,-80.14671,US,FL
Boca Pointe,26.33313,-80.15949,US,FL
Boca Raton,26.35869,-80.0831,US,FL
Bokeelia,26.70563,-82.15898,US,FL
Bonifay,30.79186,-85.67965,US,FL
Bonita Springs,26.33981,-81.7787,US,FL
Bowling Green,27.63837,-81.82397,US,FL
Boyette,27.81753,-82.22259,US,FL
Boynton Beach,26.52535,-80.06643,US,FL
Bradenton,27.49893,-82.57482,US,FL
Bradenton Beach,27.46698,-82.70399,US,FL
Brandon,27.9378,-82.28592,US,FL
Brent,30.46881,-87.23608,US,FL
Bristol,30.43247,-84.97702,US,FL
Broadview Park,26.09953,-80.20866,US,FL
Bronson,29.44774,-82.64233,US,FL
Brookridge,28.5511,-82.49204,US,FL
Brooksville,28.55554,-82.38991,US,FL
Broward Estates,26.12564,-80.19338,US,FL
Brownsville,25.82176,-80.24116,US,FL
Buckhead Ridge,27.13033,-80.89367,US,FL
Buckingham,26.67507,-81.73203,US,FL
Buenaventura Lakes,28.33584,-81.35313,US,FL
Bunche Park,25.92065,-80.23699,US,FL
Bunnell,29.46609,-81.25784,US,FL
Burnt Store Marina,26.76507,-82.05092,US,FL
Bushnell,28.66499,-82.11286,US,FL
Butler Beach,29.7983,-81.26701,US,FL
Callahan,30.56218,-81.83066,US,FL
Callaway,30.15298,-85.56993,US,FL
Campbell,28.2589,-81.45646,US,FL
Cantonment,30.60853,-87.33998,US,FL
Cape Canaveral,28.40584,-80.60477,US,FL
Cape Coral,26.56285,-81.94953,US,FL
Carol City,25.94065,-80.2456,US,FL
Carrabelle,29.85326,-84.66435,US,FL
Carrollwood,28.05002,-82.49287,US,FL
Carrollwood Village,28.06752,-82.52093,US,FL
Carver Ranches,25.98842,-80.19227,US,FL
Casselberry,28.67778,-81.32785,US,FL
Cedar Grove,30.17103,-85.6252,US,FL
Celebration,28.32529,-81.53313,US,FL
Century,30.97324,-87.26386,US,FL
Charlotte Harbor,26.95839,-82.06703,US,FL
Charlotte Park,26.91006,-82.05398,US,FL
Chattahoochee,30.70546,-84.84574,US,FL
Cheval,28.14862,-82.51454,US,FL
Chiefland,29.47496,-82.85984,US,FL
Chipley,30.78186,-85.53854,US,FL
Christmas,28.53639,-81.01756,US,FL
Chuluota,28.64194,-81.1234,US,FL
Citra,29.41192,-82.10982,US,FL
Citrus Hills,28.88831,-82.4326,US,FL
Citrus Park,28.07835,-82.56982,US,FL
Citrus Ridge,28.33385,-81.64232,US,FL
Citrus Springs,28.99748,-82.47065,US,FL
Clarcona,28.61278,-81.49868,US,FL
Clearwater,27.96585,-82.8001,US,FL
Clermont,28.54944,-81.77285,US,FL
Clewiston,26.75423,-80.93368,US,FL
Cleveland,26.96173,-81.98398,US,FL
Cocoa,28.38612,-80.742,US,FL
Cocoa Beach,28.32055,-80.60922,US,FL
Coconut Creek,26.25175,-80.17894,US,FL
Coconut Grove,25.7126,-80.25699,US,FL
Combee Settlement,28.05835,-81.90536,US,FL
Conway,28.50278,-81.33062,US,FL
Cooper City,26.05731,-80.27172,US,FL
Coral Gables,25.72149,-80.26838,US,FL
Coral Springs,26.27119,-80.2706,US,FL
Coral Terrace,25.74593,-80.3045,US,FL
Cortez,27.46921,-82.68621,US,FL
Country Walk,25.63399,-80.43228,US,FL
Country Club,25.94815,-80.317,US,FL
Crawfordville,30.17604,-84.37518,US,FL
Crescent City,29.43025,-81.51063,US,FL
Crestview,30.76213,-86.57051,US,FL
Crooked Lake Park,27.82919,-81.58397,US,FL
Cross City,29.63465,-83.12694,US,FL
Crystal Lake,28.03558,-81.90841,US,FL
Crystal River,28.90248,-82.5926,US,FL
Crystal Springs,28.1814,-82.15758,US,FL
Cudjoe Key,24.67153,-81.49842,US,FL
Cutler,25.6151,-80.31061,US,FL
Cutler Ridge,25.58066,-80.34672,US,FL
Cypress Gardens,27.99391,-81.69008,US,FL
Cypress Lake,26.53813,-81.89925,US,FL
Cypress Quarters,27.25199,-80.81395,US,FL
Dade City,28.36472,-82.19592,US,FL
Dania Beach,26.05231,-80.14393,US,FL
Davenport,28.1614,-81.60174,US,FL
Davie,26.06287,-80.2331,US,FL
Daytona Beach,29.21081,-81.02283,US,FL
Daytona Beach Shores,29.17609,-80.98283,US,FL
DeFuniak Springs,30.72102,-86.11522,US,FL
DeLand,29.02832,-81.30312,US,FL
De Leon Springs,29.11989,-81.35286,US,FL
DeBary,28.88305,-81.30868,US,FL
Deerfield Beach,26.31841,-80.09977,US,FL
Delray Beach,26.46146,-80.07282,US,FL
Deltona,28.90054,-81.26367,US,FL
Desoto Lakes,27.37143,-82.48982,US,FL
Destin,30.39353,-86.49578,US,FL
Doctor Phillips,28.44945,-81.49229,US,FL
Doral,25.81954,-80.35533,US,FL
Dover,27.99419,-82.21953,US,FL
Dundee,28.02252,-81.61924,US,FL
Dunedin,28.0199,-82.77323,US,FL
Dunnellon,29.04914,-82.46093,US,FL
Eagle Lake,27.97836,-81.75647,US,FL
East Lake,28.11085,-82.69482,US,FL
East Milton,30.61519,-87.02163,US,FL
East Palatka,29.6583,-81.59841,US,FL
East Pensacola Heights,30.42881,-87.17997,US,FL
East Perrine,25.60872,-80.33894,US,FL
Eastpoint,29.7366,-84.87852,US,FL
Eatonville,28.61472,-81.38062,US,FL
Edgewater,28.98888,-80.90228,US,FL
Edgewood,28.48612,-81.37229,US,FL
Eglin Village,30.46298,-86.5394,US,FL
Egypt Lake-Leto,28.01769,-82.50619,US,FL
El Portal,25.85537,-80.1931,US,FL
Elfers,28.21668,-82.72232,US,FL
Ellenton,27.52171,-82.5276,US,FL
Englewood,26.96201,-82.3526,US,FL
Ensley,30.51881,-87.27275,US,FL
Estero,26.43814,-81.80675,US,FL
Eustis,28.85277,-81.68535,US,FL
Fairview Shores,28.59111,-81.39424,US,FL
Feather Sound,27.90079,-82.67349,US,FL
Fellsmere,27.76781,-80.60144,US,FL
Fern Park,28.64916,-81.35118,US,FL
Fernandina Beach,30.66968,-81.46259,US,FL
Ferry Pass,30.5102,-87.21247,US,FL
Fish Hawk,27.85058,-82.21092,US,FL
Five Points,30.20912,-82.63735,US,FL
Flagami,25.76232,-80.31616,US,FL
Flagler Beach,29.47498,-81.127,US,FL
Floral City,28.74999,-82.29676,US,FL
Florida City,25.44789,-80.47922,US,FL
Florida Ridge,27.58031,-80.38672,US,FL
Forest City,28.66678,-81.44334,US,FL
Fort Lauderdale,26.12231,-80.14338,US,FL
Fort Meade,27.75225,-81.80175,US,FL
Fort Myers,26.62168,-81.84059,US,FL
Fort Myers Beach,26.45271,-81.95011,US,FL
Fort Myers Shores,26.70924,-81.74592,US,FL
Fort Pierce,27.44671,-80.32561,US,FL
Fort Walton Beach,30.42077,-86.61939,US,FL
Fountainebleau,25.77288,-80.34783,US,FL
Freeport,30.49825,-86.13605,US,FL
Frostproof,27.74586,-81.53063,US,FL
Fruit Cove,30.11107,-81.64176,US,FL
Fruitland Park,28.86138,-81.90647,US,FL
Fruitville,27.32977,-82.4576,US,FL
Fuller Heights,27.90919,-81.99814,US,FL
Fussels Corner,28.05419,-81.86064,US,FL
Gainesville,29.65163,-82.32483,US,FL
Gandy,27.8685,-82.61612,US,FL
Gateway,26.57757,-81.75036,US,FL
Geneva,28.73972,-81.11506,US,FL
Gibsonia,28.11474,-81.97369,US,FL
Gibsonton,27.85364,-82.38259,US,FL
Gifford,27.67531,-80.40922,US,FL
Gladeview,25.83926,-80.2356,US,FL
Glencoe,29.02582,-80.972,US,FL
Glenvar Heights,25.7076,-80.32561,US,FL
Golden Gate,26.18787,-81.69509,US,FL
Golden Glades,25.91176,-80.20033,US,FL
Goldenrod,28.61028,-81.28868,US,FL
Gonzalez,30.58158,-87.29136,US,FL
Gotha,28.52778,-81.52313,US,FL
Goulding,30.44298,-87.22247,US,FL
Goulds,25.56261,-80.38228,US,FL
Graceville,30.95685,-85.5166,US,FL
Green Cove Springs,29.99191,-81.67815,US,FL
Greenacres City,26.62368,-80.12532,US,FL
Gretna,30.61714,-84.65991,US,FL
Grove City,26.91423,-82.32704,US,FL
Groveland,28.55805,-81.85119,US,FL
Gulf Breeze,30.35714,-87.16386,US,FL
Gulf Gate Estates,27.25173,-82.51471,US,FL
Gulfport,27.74836,-82.70343,US,FL
Haines City,28.1145,-81.62009,US,FL
Hallandale Beach,25.9812,-80.14838,US,FL
Harbor Bluffs,27.90947,-82.8276,US,FL
Harbour Heights,26.99089,-82.00231,US,FL
Harlem,26.73757,-80.9509,US,FL
Harlem Heights,26.51619,-81.92787,US,FL
Havana,30.62381,-84.41463,US,FL
Haverhill,26.69118,-80.12004,US,FL
Hawthorne,29.59191,-82.08732,US,FL
Hawthorne,28.76138,-81.87091,US,FL
Heathrow,28.76333,-81.37225,US,FL
Hernando,28.89998,-82.37454,US,FL
Hernando Beach,28.46944,-82.65927,US,FL
Hialeah,25.8576,-80.27811,US,FL
Hialeah Gardens,25.8651,-80.3245,US,FL
High Springs,29.82691,-82.59678,US,FL
Highland Beach,26.39952,-80.0656,US,FL
Highland City,27.9653,-81.87786,US,FL
Hiland Park,30.20103,-85.62687,US,FL
Hill 'n Dale,28.51972,-82.29926,US,FL
Hilliard,30.69107,-81.91733,US,FL
Hillsboro Beach,26.29397,-80.07893,US,FL
Hobe Sound,27.0595,-80.13643,US,FL
Holden Heights,28.49667,-81.38785,US,FL
Holiday,28.18779,-82.73955,US,FL
Holley,30.44686,-86.90691,US,FL
Holly Hill,29.24359,-81.03756,US,FL
Hollywood,26.0112,-80.14949,US,FL
Holmes Beach,27.49532,-82.71093,US,FL
Homestead,25.46872,-80.47756,US,FL
Homosassa,28.78137,-82.6151,US,FL
Homosassa Springs,28.80359,-82.57593,US,FL
Howie In The Hills,28.71694,-81.77341,US,FL
Hudson,28.36445,-82.69343,US,FL
Hunters Creek,28.36056,-81.42229,US,FL
Hypoluxo,26.56646,-80.05337,US,FL
Immokalee,26.41869,-81.4173,US,FL
Indialantic,28.08946,-80.56561,US,FL
Indian Harbour Beach,28.1489,-80.58839,US,FL
Indian River Estates,27.36449,-80.30977,US,FL
Indian River Shores,27.7167,-80.38422,US,FL
Indian Rocks Beach,27.8753,-82.85122,US,FL
Indian Shores,27.8628,-82.84844,US,FL
Indiantown,27.02728,-80.48561,US,FL
Inglis,29.03025,-82.66872,US,FL
Interlachen,29.62421,-81.89256,US,FL
Inverness,28.83582,-82.33037,US,FL
Inwood,28.03697,-81.76508,US,FL
Iona,26.52036,-81.96398,US,FL
Islamorada,24.9243,-80.62784,US,FL
Ives Estates,25.96231,-80.17671,US,FL
Jacksonville,30.33218,-81.65565,US,FL
Jacksonville Beach,30.29469,-81.39314,US,FL
Jan-Phyl Village,28.01474,-81.77175,US,FL
Jasmine Estates,28.29306,-82.6901,US,FL
Jasper,30.51827,-82.94819,US,FL
Jensen Beach,27.25449,-80.22977,US,FL
June Park,28.07224,-80.68006,US,FL
Juno Beach,26.87978,-80.05337,US,FL
Jupiter,26.93422,-80.09421,US,FL
Kathleen,28.12085,-82.02314,US,FL
Kendale Lakes,25.70816,-80.407,US,FL
Kendall,25.67927,-80.31727,US,FL
Kendall Green,26.25397,-80.12393,US,FL
Kenneth City,27.81558,-82.7201,US,FL
Kensington Park,27.35949,-82.49649,US,FL
Key Biscayne,25.69371,-80.16282,US,FL
Key Largo,25.08652,-80.44728,US,FL
Key West,24.55524,-81.78163,US,FL
Keystone,28.15585,-82.62121,US,FL
Keystone Heights,29.78608,-82.03149,US,FL
Kings Point,26.44535,-80.13977,US,FL
Kissimmee,28.30468,-81.41667,US,FL
LaBelle,26.76173,-81.43841,US,FL
Lacoochee,28.46583,-82.17203,US,FL
Lady Lake,28.91749,-81.92286,US,FL
Laguna Beach,30.23965,-85.9241,US,FL
Lake Alfred,28.09196,-81.72341,US,FL
Lake Belvedere Estates,26.68923,-80.13338,US,FL
Lake Butler,30.02274,-82.33956,US,FL
Lake Butler,28.50167,-81.54091,US,FL
Lake City,30.18968,-82.63929,US,FL
Lake Clarke Shores,26.64534,-80.07588,US,FL
Lake Forest,25.97759,-80.1831,US,FL
Lake Hamilton,28.04446,-81.62785,US,FL
Lake Helen,28.98082,-81.23339,US,FL
Lake Lorraine,30.44159,-86.56523,US,FL
Lake Lucerne,25.96509,-80.24144,US,FL
Lake Magdalene,28.07418,-82.47176,US,FL
Lake Panasoffkee,28.75582,-82.09481,US,FL
Lake Park,26.80034,-80.06643,US,FL
Lake Placid,27.2931,-81.36285,US,FL
Lake Sarasota,27.29255,-82.4376,US,FL
Lake Mary,28.75888,-81.31784,US,FL
Lake Wales,27.90141,-81.58591,US,FL
Lake Worth,26.61708,-80.07231,US,FL
Lake Worth Corridor,26.61649,-80.10102,US,FL
Lakeland,28.03947,-81.9498,US,FL
Lakeland Highlands,27.95975,-81.95008,US,FL
Lakes by the Bay,25.57233,-80.32533,US,FL
Lakeside,30.12996,-81.76815,US,FL
Lakewood Park,27.54309,-80.40227,US,FL
Lakewood Park,27.48143,-80.37422,US,FL
Land O' Lakes,28.2189,-82.45759,US,FL
Lantana,26.58674,-80.05199,US,FL
Largo,27.90979,-82.78842,US,FL
Lauderdale Lakes,26.16647,-80.20838,US,FL
Lauderdale-by-the-Sea,26.19203,-80.09643,US,FL
Lauderhill,26.14036,-80.21338,US,FL
Laurel,27.14378,-82.46158,US,FL
Lealman,27.82114,-82.67927,US,FL
Lecanto,28.85165,-82.4876,US,FL
Leesburg,28.81082,-81.87786,US,FL
Lehigh Acres,26.62535,-81.6248,US,FL
Leisure City,25.49539,-80.42922,US,FL
Lely,26.10065,-81.72842,US,FL
Lely Resort,26.08093,-81.69786,US,FL
Lighthouse Point,26.27564,-80.08727,US,FL
Limestone Creek,26.94284,-80.14115,US,FL
Live Oak,30.29495,-82.98402,US,FL
Lochmoor Waterway Estates,26.64424,-81.90981,US,FL
Lockhart,28.61944,-81.44257,US,FL
Longboat Key,27.41254,-82.65899,US,FL
Longwood,28.70305,-81.3384,US,FL
Loughman,28.24196,-81.56674,US,FL
Lower Grand Lagoon,30.14409,-85.75076,US,FL
Loxahatchee Groves,26.68368,-80.27977,US,FL
Lutz,28.15112,-82.46148,US,FL
Lynn Haven,30.24548,-85.64826,US,FL
Macclenny,30.28218,-82.12206,US,FL
Madeira Beach,27.79808,-82.79732,US,FL
Madison,30.46938,-83.41293,US,FL
Maitland,28.62778,-81.36312,US,FL
Malabar,28.00363,-80.56561,US,FL
Malone,30.95769,-85.16215,US,FL
Manasota Key,26.92534,-82.35204,US,FL
Manatee Road,29.51302,-82.91429,US,FL
Mango,27.97974,-82.30648,US,FL
Mangonia Park,26.76034,-80.07365,US,FL
Marathon,24.71375,-81.09035,US,FL
Marco,25.9726,-81.72898,US,FL
Margate,26.24453,-80.20644,US,FL
Marianna,30.77436,-85.22687,US,FL
Mary Esther,30.41015,-86.66509,US,FL
Masaryktown,28.44167,-82.45704,US,FL
Mascotte,28.57833,-81.88675,US,FL
Mayo,30.053,-83.17486,US,FL
McGregor,26.56091,-81.91453,US,FL
Meadow Woods,28.38556,-81.36646,US,FL
Medulla,27.9678,-81.97342,US,FL
Melbourne,28.08363,-80.60811,US,FL
Melbourne Beach,28.06835,-80.56033,US,FL
Melrose Park,26.11342,-80.19338,US,FL
Memphis,27.53587,-82.56121,US,FL
Merritt Island,28.53917,-80.672,US,FL
Mexico Beach,29.94809,-85.41995,US,FL
Miami,25.77427,-80.19366,US,FL
Miami Beach,25.79065,-80.13005,US,FL
Miami Gardens,25.97981,-80.20255,US,FL
Miami Gardens,25.94204,-80.2456,US,FL
Miami Lakes,25.90871,-80.30866,US,FL
Miami Shores,25.86315,-80.19283,US,FL
Miami Springs,25.82232,-80.2895,US,FL
Micco,27.88058,-80.50033,US,FL
Midway,30.49548,-84.45435,US,FL
Midway,28.79027,-81.2309,US,FL
Middleburg,30.06885,-81.86038,US,FL
Milton,30.63241,-87.03969,US,FL
Mims,28.66527,-80.84478,US,FL
Minneola,28.57444,-81.74619,US,FL
Miramar,25.98731,-80.23227,US,FL
Miramar Beach,30.37437,-86.35856,US,FL
Molino,30.72408,-87.31414,US,FL
Monticello,30.54515,-83.8713,US,FL
Montverde,28.60028,-81.67396,US,FL
Moore Haven,26.83312,-81.09312,US,FL
Mount Dora,28.80249,-81.64452,US,FL
Mount Plymouth,28.80805,-81.53313,US,FL
Mulberry,27.8953,-81.97342,US,FL
Myrtle Grove,30.42103,-87.30747,US,FL
Naples,26.14234,-81.79596,US,FL
Naples Manor,26.0887,-81.7262,US,FL
Naples Park,26.26175,-81.80925,US,FL
Naranja,25.51816,-80.42283,US,FL
Navarre,30.40159,-86.86357,US,FL
Neptune Beach,30.31191,-81.39647,US,FL
New Port Richey,28.24418,-82.71927,US,FL
New Smyrna Beach,29.02582,-80.927,US,FL
Newberry,29.64635,-82.6065,US,FL
Niceville,30.51686,-86.48217,US,FL
Nocatee,27.16033,-81.88231,US,FL
Nokomis,27.11922,-82.44426,US,FL
Norland,25.94898,-80.21227,US,FL
North Andrews Gardens,26.19147,-80.14421,US,FL
North Bay Village,25.84621,-80.15394,US,FL
North Brooksville,28.57305,-82.40815,US,FL
North DeLand,29.04943,-81.29812,US,FL
North Fort Myers,26.66729,-81.88009,US,FL
North Key Largo,25.26734,-80.32339,US,FL
North Lauderdale,26.2173,-80.22588,US,FL
North Miami,25.89009,-80.18671,US,FL
North Miami Beach,25.93315,-80.16255,US,FL
North Palm Beach,26.81756,-80.08199,US,FL
North Port,27.04422,-82.23593,US,FL
North Redington Beach,27.81614,-82.82066,US,FL
North River Shores,27.21755,-80.26977,US,FL
North Sarasota,27.37393,-82.51843,US,FL
Oak Hill,28.86443,-80.8545,US,FL
Oak Ridge,28.47112,-81.42452,US,FL
Oakland,28.555,-81.63313,US,FL
Oakland Park,26.17231,-80.13199,US,FL
Ocala,29.1872,-82.14009,US,FL
Ocean City,30.44103,-86.61356,US,FL
Ocean Ridge,26.52702,-80.04837,US,FL
Ocoee,28.56917,-81.54396,US,FL
Odessa,28.1939,-82.59176,US,FL
Ojus,25.94843,-80.1506,US,FL
Okeechobee,27.24393,-80.82978,US,FL
Oldsmar,28.03418,-82.6651,US,FL
Olga,26.71896,-81.7123,US,FL
Olympia Heights,25.72677,-80.35533,US,FL
Opa-locka,25.90232,-80.25033,US,FL
Orange City,28.94888,-81.29867,US,FL
Orange Park,30.16607,-81.70648,US,FL
Orangetree,26.29286,-81.58842,US,FL
Oriole Beach,30.37381,-87.09136,US,FL
Orlando,28.53834,-81.37924,US,FL
Orlovista,28.53834,-81.46035,US,FL
Ormond Beach,29.28581,-81.05589,US,FL
Ormond-by-the-Sea,29.34914,-81.06645,US,FL
Osprey,27.19616,-82.49037,US,FL
Oviedo,28.67,-81.20812,US,FL
Pace,30.59936,-87.16108,US,FL
Pahokee,26.82006,-80.66534,US,FL
Palatka,29.64858,-81.63758,US,FL
Palm Aire,26.20619,-80.19171,US,FL
Palm Bay,28.03446,-80.58866,US,FL
Palm Beach,26.70562,-80.03643,US,FL
Palm Beach Gardens,26.82339,-80.13865,US,FL
Palm Beach Shores,26.77812,-80.0356,US,FL
Palm City,27.16783,-80.26616,US,FL
Palm Coast,29.58497,-81.20784,US,FL
Palm Harbor,28.07807,-82.76371,US,FL
Palm Springs,26.6359,-80.09615,US,FL
Palm Springs North,25.9351,-80.33383,US,FL
Palm Valley,30.17746,-81.38758,US,FL
Palmetto,27.52143,-82.57232,US,FL
Palmetto Bay,25.62177,-80.32477,US,FL
Palmetto Estates,25.62149,-80.362,US,FL
Palmona Park,26.68646,-81.89648,US,FL
Panama City,30.15946,-85.65983,US,FL
Panama City Beach,30.17659,-85.80549,US,FL
Paradise Heights,28.62361,-81.54396,US,FL
Parker,30.13104,-85.60326,US,FL
Parkland,26.31008,-80.23727,US,FL
Pebble Creek,28.14835,-82.34565,US,FL
Pelican Bay,26.2312,-81.80564,US,FL
Pembroke Park,25.98787,-80.17477,US,FL
Pembroke Pines,26.00315,-80.22394,US,FL
Pensacola,30.42131,-87.21691,US,FL
Perry,30.11766,-83.58274,US,FL
Pierson,29.23942,-81.46563,US,FL
Pine Castle,28.47195,-81.36785,US,FL
Pine Hills,28.55778,-81.4534,US,FL
Pine Island Center,26.61369,-82.11815,US,FL
Pine Island Ridge,26.09481,-80.27394,US,FL
Pine Manor,26.57285,-81.87814,US,FL
Pine Ridge,28.93831,-82.47343,US,FL
Pine Ridge,26.23064,-81.79592,US,FL
Pinecrest,25.66705,-80.30811,US,FL
Pinellas Park,27.8428,-82.69954,US,FL
Pinewood,25.86898,-80.21699,US,FL
Placid Lakes,27.24144,-81.40702,US,FL
Plant City,28.01888,-82.11469,US,FL
Plantation,26.13421,-80.23184,US,FL
Plantation,24.97624,-80.55228,US,FL
Plantation,27.06811,-82.37287,US,FL
Plantation Mobile Home Park,26.70312,-80.13227,US,FL
Poinciana,28.14029,-81.45841,US,FL
Point Baker,30.69019,-87.05358,US,FL
Polk City,28.18251,-81.82397,US,FL
Pompano Beach,26.23786,-80.12477,US,FL
Pompano Beach Highlands,26.28286,-80.10699,US,FL
Ponce Inlet,29.09637,-80.937,US,FL
Ponte Vedra Beach,30.23969,-81.38564,US,FL
Port Charlotte,26.97617,-82.09064,US,FL
Port LaBelle,26.75645,-81.40508,US,FL
Port Orange,29.13832,-80.99561,US,FL
Port Richey,28.27168,-82.71955,US,FL
Port Saint Joe,29.81188,-85.30297,US,FL
Port Saint John,28.47695,-80.78867,US,FL
Port Saint Lucie,27.29393,-80.35033,US,FL
Port Salerno,27.14422,-80.2006,US,FL
Pretty Bayou,30.19659,-85.6966,US,FL
Princeton,25.53844,-80.40894,US,FL
Progress Village,27.9003,-82.36454,US,FL
Punta Gorda,26.92978,-82.04537,US,FL
Punta Gorda Isles,26.91756,-82.07842,US,FL
Punta Rassa,26.48786,-82.01231,US,FL
Quincy,30.58714,-84.58325,US,FL
Redington Beach,27.80864,-82.81121,US,FL
Redington Shores,27.82614,-82.82899,US,FL
Richmond Heights,25.63149,-80.36894,US,FL
Richmond West,25.6105,-80.42971,US,FL
Ridge Manor,28.5075,-82.17036,US,FL
Ridge Wood Heights,27.28727,-82.51315,US,FL
Ridgecrest,27.8975,-82.80529,US,FL
River Park,27.31421,-80.34727,US,FL
Riverview,27.86614,-82.32648,US,FL
Riviera Beach,26.77534,-80.0581,US,FL
Rock Island,26.15509,-80.17699,US,FL
Rockledge,28.35084,-80.72533,US,FL
Roseland,27.83586,-80.49311,US,FL
Rotonda,26.88368,-82.29009,US,FL
Royal Palm Beach,26.7084,-80.2306,US,FL
Royal Palm Estates,26.68173,-80.12504,US,FL
Ruskin,27.72086,-82.43315,US,FL
Safety Harbor,27.99085,-82.69316,US,FL
Saint Augustine,29.89469,-81.31452,US,FL
Saint Augustine Beach,29.85053,-81.26535,US,FL
Saint Augustine Shores,29.8108,-81.31035,US,FL
Saint Cloud,28.2489,-81.28118,US,FL
Saint George,28.05641,-82.72788,US,FL
Saint James City,26.49758,-82.07843,US,FL
Saint Leo,28.33723,-82.25842,US,FL
Saint Pete Beach,27.72531,-82.74121,US,FL
St. Petersburg,27.77086,-82.67927,US,FL
Samoset,27.46948,-82.54149,US,FL
San Antonio,28.33611,-82.27453,US,FL
San Carlos Park,26.4673,-81.80147,US,FL
Sanibel,26.44897,-82.02231,US,FL
Sanford,28.80055,-81.27312,US,FL
Sarasota,27.33643,-82.53065,US,FL
Sarasota Springs,27.30894,-82.47954,US,FL
Satellite Beach,28.17612,-80.59005,US,FL
Sawgrass,30.19274,-81.37064,US,FL
Schall Circle,26.71562,-80.11504,US,FL
Scott Lake,25.94148,-80.23199,US,FL
Seaside,30.32103,-86.14161,US,FL
Sebastian,27.81641,-80.47061,US,FL
Sebring,27.49559,-81.44091,US,FL
Seffner,27.98363,-82.27565,US,FL
Seminole,27.83975,-82.79121,US,FL
Seminole Manor,26.58368,-80.10032,US,FL
Sewall's Point,27.19949,-80.20227,US,FL
Shady Hills,28.41,-82.54288,US,FL
Sharpes,28.43223,-80.76005,US,FL
Siesta Key,27.26785,-82.54526,US,FL
Silver Lake,28.84193,-81.79841,US,FL
Silver Springs Shores,29.10442,-82.02064,US,FL
Sky Lake,28.45723,-81.39146,US,FL
Sneads,30.70801,-84.92552,US,FL
South Bay,26.66396,-80.71617,US,FL
South Beach,27.59115,-80.34422,US,FL
South Bradenton,27.4631,-82.58176,US,FL
South Apopka,28.66194,-81.50952,US,FL
South Brooksville,28.53582,-82.38403,US,FL
South Daytona,29.16582,-81.0045,US,FL
South Gate Ridge,27.28644,-82.49676,US,FL
South Highpoint,27.91697,-82.71288,US,FL
South Miami,25.7076,-80.29338,US,FL
South Miami Heights,25.59761,-80.38061,US,FL
South Palm Beach,26.58896,-80.03865,US,FL
South Pasadena,27.75503,-82.7376,US,FL
South Patrick Shores,28.20223,-80.6095,US,FL
South Sarasota,27.28616,-82.53288,US,FL
South Venice,27.05311,-82.42426,US,FL
Southchase,28.39306,-81.3834,US,FL
Southgate,27.3081,-82.50982,US,FL
Southwest Ranches,26.0587,-80.33727,US,FL
Spring Hill,28.47688,-82.52546,US,FL
Springfield,30.15326,-85.61132,US,FL
Starke,29.94413,-82.10983,US,FL
Steinhatchee,29.67106,-83.38764,US,FL
Stock Island,24.56709,-81.73842,US,FL
Stuart,27.19755,-80.25283,US,FL
Sugarmill Woods,28.73221,-82.50621,US,FL
Sun City Center,27.71809,-82.35176,US,FL
Suncoast Estates,26.71174,-81.86897,US,FL
Sunny Isles Beach,25.95065,-80.12282,US,FL
Sunrise,26.13397,-80.1131,US,FL
Sunset,25.70594,-80.35228,US,FL
Sunshine Ranches,26.04592,-80.32894,US,FL
Surfside,25.87843,-80.1256,US,FL
Sweetwater,25.76343,-80.37311,US,FL
Taft,28.42973,-81.36507,US,FL
Tallahassee,30.43826,-84.28073,US,FL
Tamarac,26.21286,-80.24977,US,FL
Tamiami,25.75871,-80.39839,US,FL
Tampa,27.94752,-82.45843,US,FL
Tangelo Park,28.45584,-81.4459,US,FL
Tangerine,28.76499,-81.63063,US,FL
Tarpon Springs,28.14612,-82.75677,US,FL
Tavares,28.80416,-81.72563,US,FL
Tavernier,25.01152,-80.51506,US,FL
Taylor Creek,27.21671,-80.7895,US,FL
Tedder,26.28425,-80.12227,US,FL
Temple Terrace,28.0353,-82.38926,US,FL
Tequesta,26.96811,-80.12865,US,FL
Terra Mar,26.21619,-80.09532,US,FL
The Crossings,25.67066,-80.40117,US,FL
The Hammocks,25.67149,-80.4445,US,FL
The Meadows,27.36171,-82.46898,US,FL
The Villages,28.93408,-81.95994,US,FL
Thonotosassa,28.06141,-82.30231,US,FL
Three Lakes,25.64205,-80.39839,US,FL
Three Oaks,26.47008,-81.79397,US,FL
Tice,26.67479,-81.81508,US,FL
Tierra Verde,27.69197,-82.72343,US,FL
Tiger Point,30.37853,-87.05552,US,FL
Timber Pines,28.47028,-82.60316,US,FL
Titusville,28.61222,-80.80755,US,FL
Town 'n' Country,28.01057,-82.57732,US,FL
Treasure Island,27.76919,-82.76899,US,FL
Trenton,29.61329,-82.81762,US,FL
Twin Lakes,26.18092,-80.16005,US,FL
Umatilla,28.92943,-81.66563,US,FL
Union Park,28.56806,-81.28618,US,FL
University Park,25.74649,-80.36755,US,FL
Upper Grand Lagoon,30.16326,-85.74076,US,FL
Valparaiso,30.50853,-86.50273,US,FL
Valrico,27.93789,-82.23644,US,FL
Vamo,27.222,-82.49787,US,FL
Venice,27.09978,-82.45426,US,FL
Venice Gardens,27.07311,-82.4076,US,FL
Vero Beach,27.63864,-80.39727,US,FL
Villages of Oriole,26.4623,-80.15282,US,FL
Villano Beach,29.93858,-81.30202,US,FL
Vineyards,26.22373,-81.72798,US,FL
Virginia Gardens,25.81038,-80.30227,US,FL
Wabasso Beach,27.76475,-80.39894,US,FL
Wahneta,27.9528,-81.72702,US,FL
Waldo,29.78969,-82.16732,US,FL
Wallace,30.67741,-87.17997,US,FL
Warm Mineral Springs,27.05978,-82.26009,US,FL
Warrington,30.38409,-87.27497,US,FL
Washington Park,26.13259,-80.18116,US,FL
Watertown,30.19245,-82.61457,US,FL
Wauchula,27.54726,-81.81147,US,FL
Wedgefield,28.48778,-81.07729,US,FL
Weeki Wachee Gardens,28.53361,-82.62954,US,FL
Wekiwa Springs,28.69861,-81.42563,US,FL
Wellborn,30.23106,-82.81957,US,FL
Wellington,26.65868,-80.24144,US,FL
Wesley Chapel,28.23973,-82.32787,US,FL
West Bradenton,27.50254,-82.61399,US,FL
Westchase,28.05502,-82.60982,US,FL
West DeLand,29.01582,-81.33312,US,FL
West Little River,25.85704,-80.23699,US,FL
West Melbourne,28.07168,-80.65339,US,FL
West Miami,25.76343,-80.29616,US,FL
West Palm Beach,26.71534,-80.05337,US,FL
West Park,25.98454,-80.19894,US,FL
West Pensacola,30.42659,-87.27969,US,FL
West Perrine,25.60594,-80.36283,US,FL
West Samoset,27.46948,-82.55676,US,FL
West Vero Corridor,27.63775,-80.48576,US,FL
West and East Lealman,27.81993,-82.68944,US,FL
Westchester,25.75482,-80.32727,US,FL
Weston,26.10037,-80.39977,US,FL
Westview,25.88204,-80.24199,US,FL
Westwood Lake,25.72927,-80.37283,US,FL
Wewahitchka,30.1127,-85.20047,US,FL
Whiskey Creek,26.57258,-81.89009,US,FL
White City,27.37393,-80.33394,US,FL
Whitfield,27.41171,-82.56593,US,FL
Wildwood,28.86542,-82.04058,US,FL
Williamsburg,28.41445,-81.44285,US,FL
Williston,29.38747,-82.44677,US,FL
Williston Highlands,29.34052,-82.5415,US,FL
Willow Oak,27.91614,-82.01786,US,FL
Wilton Manors,26.16036,-80.13893,US,FL
Wimauma,27.71253,-82.29898,US,FL
Windermere,28.49556,-81.5348,US,FL
Winston,28.03169,-82.01481,US,FL
Winter Beach,27.7192,-80.42061,US,FL
Winter Garden,28.56528,-81.58618,US,FL
Winter Haven,28.02224,-81.73286,US,FL
Winter Park,28.6,-81.33924,US,FL
Winter Springs,28.69889,-81.30812,US,FL
Woodlawn Beach,30.38825,-86.9908,US,FL
Woodville,30.31409,-84.2474,US,FL
Wright,30.45575,-86.63829,US,FL
Yalaha,28.7386,-81.80869,US,FL
Youngstown,30.36436,-85.43826,US,FL
Yulee,30.6319,-81.60649,US,FL
Zellwood,28.73111,-81.60118,US,FL
Zephyrhills,28.23362,-82.18119,US,FL
Zolfo Springs,27.49337,-81.79592,US,FL
Abbeville,31.99212,-83.30682,US,GA
Acworth,34.06635,-84.67837,US,GA
Adairsville,34.3687,-84.93411,US,GA
Adel,31.13727,-83.42408,US,GA
Alamo,32.14712,-82.77792,US,GA
Albany,31.57851,-84.15574,US,GA
Alma,31.53937,-82.46236,US,GA
Alpharetta,34.07538,-84.29409,US,GA
Alto,34.46732,-83.57378,US,GA
Americus,32.07239,-84.23269,US,GA
Appling,33.54608,-82.3173,US,GA
Aragon,34.04565,-85.05606,US,GA
Arcade,34.07789,-83.56155,US,GA
Arlington,31.4399,-84.72492,US,GA
Ashburn,31.70601,-83.65322,US,GA
Athens,33.96095,-83.37794,US,GA
Atlanta,33.749,-84.38798,US,GA
Auburn,34.01372,-83.82768,US,GA
Augusta,33.47097,-81.97484,US,GA
Austell,33.81261,-84.63438,US,GA
Avondale Estates,33.77149,-84.26714,US,GA
Bainbridge,30.9038,-84.57547,US,GA
Baldwin,34.49177,-83.53739,US,GA
Ball Ground,34.33815,-84.37659,US,GA
Barnesville,33.05457,-84.15575,US,GA
Baxley,31.77825,-82.34846,US,GA
Belvedere Park,33.75483,-84.26742,US,GA
Berkeley Lake,33.98371,-84.18658,US,GA
Blackshear,31.30605,-82.24207,US,GA
Blairsville,34.8762,-83.95824,US,GA
Blakely,31.37768,-84.93409,US,GA
Bloomingdale,32.13242,-81.299,US,GA
Blue Ridge,34.86397,-84.32409,US,GA
Bogart,33.94928,-83.53461,US,GA
Bonanza,33.46567,-84.33659,US,GA
Boston,30.79186,-83.78989,US,GA
Bowdon,33.53789,-85.25328,US,GA
Braselton,34.10927,-83.76267,US,GA
Bremen,33.72122,-85.1455,US,GA
Brookhaven,33.85844,-84.3402,US,GA
Brooklet,32.37963,-81.66317,US,GA
Broxton,31.62519,-82.88681,US,GA
Brunswick,31.14995,-81.49149,US,GA
Buchanan,33.8026,-85.18856,US,GA
Buena Vista,32.31904,-84.51714,US,GA
Buford,34.12066,-84.00435,US,GA
Butler,32.55709,-84.23825,US,GA
Byron,32.65376,-83.75963,US,GA
Cairo,30.87751,-84.20214,US,GA
Calhoun,34.50259,-84.95105,US,GA
Camilla,31.23129,-84.21046,US,GA
Canton,34.23676,-84.49076,US,GA
Carnesville,34.36983,-83.23516,US,GA
Carrollton,33.58011,-85.07661,US,GA
Cartersville,34.16533,-84.80231,US,GA
Cave Spring,34.1076,-85.33634,US,GA
Cedartown,34.05371,-85.25495,US,GA
Centerville,32.63014,-83.68963,US,GA
Chamblee,33.89205,-84.29881,US,GA
Chatsworth,34.76591,-84.76994,US,GA
Chattanooga Valley,34.93285,-85.35551,US,GA
Chester,32.39378,-83.15293,US,GA
Chickamauga,34.87119,-85.29079,US,GA
Clarkesville,34.6126,-83.52489,US,GA
Clarkston,33.80955,-84.23964,US,GA
Claxton,32.16158,-81.904,US,GA
Clayton,34.87815,-83.40099,US,GA
Cleveland,34.59704,-83.76324,US,GA
Cochran,32.38683,-83.35461,US,GA
College Park,33.65344,-84.44937,US,GA
Colquitt,31.17129,-84.73325,US,GA
Columbus,32.46098,-84.98771,US,GA
Comer,34.06372,-83.12543,US,GA
Commerce,34.204,-83.45711,US,GA
Conley,33.64483,-84.32576,US,GA
Conyers,33.66761,-84.01769,US,GA
Cordele,31.96351,-83.78239,US,GA
Cornelia,34.51149,-83.52712,US,GA
Country Club Estates,33.98928,-83.4096,US,GA
Country Club Estates,31.21273,-81.46427,US,GA
Covington,33.59678,-83.86018,US,GA
Crawfordville,33.55402,-82.89598,US,GA
Cumming,34.20732,-84.14019,US,GA
Cusseta,32.30543,-84.7727,US,GA
Cuthbert,31.77127,-84.78937,US,GA
Dacula,33.98872,-83.89796,US,GA
Dahlonega,34.53259,-83.98491,US,GA
Dalton,34.7698,-84.97022,US,GA
Dallas,33.92371,-84.84077,US,GA
Danielsville,34.12428,-83.22126,US,GA
Darien,31.37023,-81.43399,US,GA
Davisboro,32.97904,-82.60791,US,GA
Dawson,31.77382,-84.448,US,GA
Dawsonville,34.42121,-84.11908,US,GA
Decatur,33.77483,-84.29631,US,GA
Deenwood,31.22201,-82.38725,US,GA
Demorest,34.5651,-83.54517,US,GA
Dock Junction,31.20245,-81.51677,US,GA
Donalsonville,31.04046,-84.87909,US,GA
Doraville,33.89816,-84.28326,US,GA
Douglas,31.50881,-82.84987,US,GA
Douglasville,33.7515,-84.74771,US,GA
Druid Hills,33.78038,-84.33604,US,GA
Dublin,32.54044,-82.90375,US,GA
Duluth,34.00288,-84.14464,US,GA
Dunwoody,33.94621,-84.33465,US,GA
East Dublin,32.54822,-82.87181,US,GA
East Griffin,33.24373,-84.22881,US,GA
East Point,33.67955,-84.43937,US,GA
East Newnan,33.35067,-84.7766,US,GA
Eastman,32.19767,-83.17765,US,GA
Eatonton,33.3268,-83.3885,US,GA
Edison,31.55823,-84.73825,US,GA
Elberton,34.11159,-82.86863,US,GA
Ellaville,32.23821,-84.30908,US,GA
Ellijay,34.69481,-84.48215,US,GA
Emerson,34.12704,-84.75549,US,GA
Enigma,31.41297,-83.32905,US,GA
Euharlee,34.14482,-84.933,US,GA
Evans,33.53375,-82.13067,US,GA
Experiment,33.26539,-84.28159,US,GA
Fair Oaks,33.91649,-84.54465,US,GA
Fairburn,33.56706,-84.58104,US,GA
Fairview,34.94563,-85.2844,US,GA
Fayetteville,33.44873,-84.45493,US,GA
Fitzgerald,31.71491,-83.25265,US,GA
Flowery Branch,34.1851,-83.92518,US,GA
Folkston,30.83095,-82.01131,US,GA
Forest Park,33.62205,-84.36909,US,GA
Forsyth,33.0343,-83.93824,US,GA
Fort Gaines,31.60924,-85.04933,US,GA
Fort Oglethorpe,34.94896,-85.2569,US,GA
Fort Valley,32.55376,-83.88741,US,GA
Franklin,33.27762,-85.098,US,GA
Gainesville,34.29788,-83.82407,US,GA
Garden City,32.11437,-81.154,US,GA
Georgetown,31.98326,-81.22733,US,GA
Georgetown,31.88461,-85.10743,US,GA
Gibson,33.23348,-82.59541,US,GA
Glennville,31.93659,-81.92845,US,GA
Gordon,32.88209,-83.33238,US,GA
Grantville,33.23484,-84.83577,US,GA
Gray,33.00958,-83.53378,US,GA
Grayson,33.89427,-83.95574,US,GA
Greensboro,33.57568,-83.18238,US,GA
Greenville,33.02874,-84.71298,US,GA
Gresham Park,33.70344,-84.31437,US,GA
Griffin,33.24678,-84.26409,US,GA
Grovetown,33.45042,-82.19818,US,GA
Gumlog,34.49177,-83.09654,US,GA
Guyton,32.3363,-81.3915,US,GA
Hahira,30.99131,-83.37266,US,GA
Hamilton,32.75791,-84.87493,US,GA
Hampton,33.38706,-84.28298,US,GA
Hannahs Mill,32.93291,-84.34936,US,GA
Hapeville,33.66011,-84.4102,US,GA
Hardwick,33.0682,-83.22349,US,GA
Harlem,33.41458,-82.31262,US,GA
Hartwell,34.35288,-82.93209,US,GA
Hawkinsville,32.28377,-83.47212,US,GA
Hazlehurst,31.86963,-82.5943,US,GA
Helena,32.07379,-82.91459,US,GA
Hephzibah,33.31403,-82.09679,US,GA
Hiawassee,34.94926,-83.75739,US,GA
Hinesville,31.84688,-81.59595,US,GA
Hiram,33.87566,-84.76216,US,GA
Hogansville,33.17318,-84.91494,US,GA
Holly Springs,34.17399,-84.50132,US,GA
Homer,34.33372,-83.49905,US,GA
Homerville,31.0366,-82.74708,US,GA
Hoschton,34.0965,-83.76128,US,GA
Indian Springs,33.24262,-83.92074,US,GA
Indian Springs,34.95785,-85.1644,US,GA
Irondale,33.48067,-84.35881,US,GA
Irwinton,32.81126,-83.17265,US,GA
Isle of Hope,31.98188,-81.06094,US,GA
Jackson,33.29457,-83.96602,US,GA
Jasper,34.46787,-84.42909,US,GA
Jefferson,34.11705,-83.57239,US,GA
Jefferson,33.4493,-83.31155,US,GA
Jeffersonville,32.68765,-83.34656,US,GA
Jesup,31.60785,-81.88634,US,GA
Jonesboro,33.5215,-84.35381,US,GA
Kennesaw,34.02343,-84.61549,US,GA
Kingsland,30.79996,-81.68983,US,GA
Knoxville,32.72431,-83.99769,US,GA
La Grange,33.03929,-85.03133,US,GA
LaFayette,34.7048,-85.2819,US,GA
Lake City,33.6065,-84.3352,US,GA
Lakeland,31.04104,-83.07515,US,GA
Lakeview,34.97924,-85.25884,US,GA
Lakeview Estates,33.70678,-84.03158,US,GA
Lavonia,34.43594,-83.10682,US,GA
Lawrenceville,33.95621,-83.98796,US,GA
Leesburg,31.73212,-84.17074,US,GA
Lexington,33.86984,-83.11182,US,GA
Lilburn,33.8901,-84.14297,US,GA
Lincolnton,33.79235,-82.47902,US,GA
Lindale,34.18676,-85.17467,US,GA
Lithia Springs,33.794,-84.66049,US,GA
Lithonia,33.71233,-84.10519,US,GA
Locust Grove,33.34595,-84.10908,US,GA
Loganville,33.839,-83.90074,US,GA
Lookout Mountain,34.97758,-85.35774,US,GA
Louisville,33.00154,-82.41124,US,GA
Lovejoy,33.43622,-84.31437,US,GA
Ludowici,31.70799,-81.74234,US,GA
Lula,34.3876,-83.66629,US,GA
Lumber City,31.92935,-82.67958,US,GA
Lumpkin,32.05099,-84.79909,US,GA
Lyons,32.20435,-82.32179,US,GA
Mableton,33.81872,-84.58243,US,GA
Macon,32.84069,-83.6324,US,GA
Madison,33.59568,-83.46794,US,GA
Manchester,32.85985,-84.61993,US,GA
Marietta,33.9526,-84.54993,US,GA
Marshallville,32.45626,-83.94019,US,GA
Martinez,33.51736,-82.07567,US,GA
Maysville,34.25288,-83.56155,US,GA
McCaysville,34.98619,-84.37131,US,GA
McDonough,33.44734,-84.14686,US,GA
McRae,32.06795,-82.9007,US,GA
Meigs,31.07241,-84.08907,US,GA
Metter,32.39712,-82.06012,US,GA
Midway,31.80577,-81.43066,US,GA
Milledgeville,33.08014,-83.2321,US,GA
Millen,32.80405,-81.94928,US,GA
Monroe,33.79484,-83.71323,US,GA
Montezuma,32.30516,-84.02741,US,GA
Montgomery,31.94049,-81.12205,US,GA
Monticello,33.30485,-83.68323,US,GA
Morgan,31.53767,-84.59936,US,GA
Morrow,33.58317,-84.33937,US,GA
Mount Airy,34.51871,-83.50073,US,GA
Moultrie,31.17991,-83.78906,US,GA
Mount Vernon,32.17851,-82.59458,US,GA
Mount Zion,33.63428,-85.18717,US,GA
Mount Zion,33.36125,-83.00765,US,GA
Mountain City,34.91815,-83.38544,US,GA
Mountain Park,33.84427,-84.12936,US,GA
Nahunta,31.20439,-81.98123,US,GA
Nashville,31.20742,-83.25015,US,GA
Nelson,34.38204,-84.37103,US,GA
Newnan,33.38067,-84.79966,US,GA
Newton,31.31296,-84.33574,US,GA
Nicholls,31.51742,-82.63486,US,GA
Nicholson,34.114,-83.43155,US,GA
Norcross,33.94121,-84.21353,US,GA
North Decatur,33.79038,-84.30603,US,GA
North Druid Hills,33.81677,-84.31326,US,GA
Oakwood,34.2276,-83.88435,US,GA
Oakwood,33.54817,-83.97435,US,GA
Ocilla,31.59447,-83.2513,US,GA
Oglethorpe,32.29377,-84.06102,US,GA
Omega,31.34102,-83.5935,US,GA
Oxford,33.619,-83.86741,US,GA
Palmetto,33.51789,-84.66965,US,GA
Panthersville,33.70733,-84.27187,US,GA
Peachtree City,33.39678,-84.59576,US,GA
Pearson,31.2977,-82.85237,US,GA
Pelham,31.12802,-84.15304,US,GA
Pembroke,32.13634,-81.62348,US,GA
Perry,32.45821,-83.73157,US,GA
Pine Mountain,33.67594,-84.11492,US,GA
Pine Mountain,32.86485,-84.8541,US,GA
Pooler,32.11548,-81.24706,US,GA
Port Wentworth,32.14909,-81.16317,US,GA
Porterdale,33.57511,-83.8938,US,GA
Powder Springs,33.85955,-84.68382,US,GA
Preston,32.06599,-84.53742,US,GA
Putney,31.47018,-84.11768,US,GA
Quitman,30.78492,-83.55988,US,GA
Raoul,34.44954,-83.59434,US,GA
Ray City,31.07464,-83.19932,US,GA
Redan,33.74538,-84.13158,US,GA
Reed Creek,34.44594,-82.92487,US,GA
Reidsville,32.08686,-82.1179,US,GA
Remerton,30.84409,-83.31043,US,GA
Reynolds,32.55987,-84.0963,US,GA
Richland,32.08793,-84.66742,US,GA
Richmond Hill,31.93827,-81.30344,US,GA
Rincon,32.29603,-81.23539,US,GA
Ringgold,34.91591,-85.10912,US,GA
Riverdale,33.57261,-84.41326,US,GA
Roberta,32.72181,-84.01324,US,GA
Rochelle,31.95101,-83.45627,US,GA
Rockmart,34.0026,-85.04161,US,GA
Rome,34.25704,-85.16467,US,GA
Roswell,34.02316,-84.36159,US,GA
Rossville,34.98313,-85.28607,US,GA
Royston,34.28705,-83.11015,US,GA
Russell,33.97872,-83.70017,US,GA
Rydal,34.33537,-84.71549,US,GA
St. Marys,30.73051,-81.54649,US,GA
Saint Simon Mills,31.17079,-81.40732,US,GA
Saint Simons Island,31.15051,-81.36954,US,GA
Sandersville,32.98154,-82.81014,US,GA
Sandy Springs,33.92427,-84.37854,US,GA
Sardis,32.79652,-84.63881,US,GA
Savannah,32.08354,-81.09983,US,GA
Scottdale,33.78983,-84.26409,US,GA
Senoia,33.30234,-84.55382,US,GA
Shannon,34.33676,-85.07134,US,GA
Shannon,33.40456,-84.46826,US,GA
Shellman,31.75628,-84.6152,US,GA
Skidaway Island,31.93494,-81.04705,US,GA
Smyrna,33.88399,-84.51438,US,GA
Snellville,33.85733,-84.01991,US,GA
Social Circle,33.65623,-83.71823,US,GA
Soperton,32.37712,-82.59236,US,GA
Sparks,31.16686,-83.43738,US,GA
Sparks,33.08793,-82.73764,US,GA
Sparta,33.2757,-82.97626,US,GA
Springfield,32.37241,-81.3115,US,GA
Statenville,30.70327,-83.02764,US,GA
Statesboro,32.44879,-81.78317,US,GA
Statham,33.96511,-83.59655,US,GA
Stockbridge,33.54428,-84.23381,US,GA
Stone Mountain,33.80816,-84.1702,US,GA
Sugar Hill,34.10649,-84.03352,US,GA
Summerville,34.48064,-85.34773,US,GA
Sunnyside,31.23938,-82.34207,US,GA
Suwanee,34.05149,-84.0713,US,GA
Swainsboro,32.59739,-82.33374,US,GA
Sylvania,32.75044,-81.63678,US,GA
Sylvester,31.53092,-83.83693,US,GA
Talbotton,32.67764,-84.53937,US,GA
Tallapoosa,33.74455,-85.28801,US,GA
Temple,33.73705,-85.03244,US,GA
Tennille,32.93599,-82.81153,US,GA
Thomasville,30.83658,-83.97878,US,GA
Thomaston,32.88819,-84.32659,US,GA
Thomson,33.47069,-82.50457,US,GA
Thunderbolt,32.03354,-81.04983,US,GA
Tifton,31.45046,-83.5085,US,GA
Toccoa,34.57732,-83.33239,US,GA
Trenton,34.87202,-85.50913,US,GA
Trion,34.54397,-85.31051,US,GA
Tucker,33.85455,-84.21714,US,GA
Twin City,32.58294,-82.15512,US,GA
Tybee Island,32.00022,-80.84567,US,GA
Tyrone,33.47123,-84.59715,US,GA
Unadilla,32.26155,-83.73657,US,GA
Union City,33.58706,-84.54243,US,GA
Union Point,33.61568,-83.0746,US,GA
Unionville,31.43491,-83.50961,US,GA
Valdosta,30.83334,-83.28032,US,GA
Varnell,34.90119,-84.97383,US,GA
Vidalia,32.21769,-82.41346,US,GA
Vienna,32.09156,-83.79545,US,GA
Villa Rica,33.73205,-84.91911,US,GA
Vinings,33.86483,-84.46437,US,GA
Wadley,32.86682,-82.40402,US,GA
Walnut Grove,33.74261,-83.8524,US,GA
Walthourville,31.7741,-81.63261,US,GA
Warner Robins,32.61574,-83.62664,US,GA
Warrenton,33.40708,-82.66208,US,GA
Washington,33.73679,-82.73931,US,GA
Watkinsville,33.8629,-83.40877,US,GA
Waycross,31.21368,-82.3557,US,GA
Waynesboro,33.08987,-82.01567,US,GA
West Point,32.87791,-85.18327,US,GA
West Point,32.79347,-83.80741,US,GA
Whitemarsh Island,32.02882,-81.01678,US,GA
Willacoochee,31.34076,-83.04598,US,GA
Wilmington Island,32.00355,-80.97372,US,GA
Winder,33.99261,-83.72017,US,GA
Winterville,33.96706,-83.27821,US,GA
Woodbine,30.96396,-81.72416,US,GA
Woodstock,34.10149,-84.51938,US,GA
Wrens,33.20765,-82.39179,US,GA
Wrightsville,32.72933,-82.71986,US,GA
Zebulon,33.10235,-84.3427,US,GA
Albers,38.54338,-89.61231,US,IL
Albion,38.37755,-88.05615,US,IL
Alorton,38.58977,-90.12011,US,IL
Altamont,39.06199,-88.74811,US,IL
Alton,38.8906,-90.18428,US,IL
Anna,37.46033,-89.24703,US,IL
Arcola,39.68476,-88.30644,US,IL
Arthur,39.71476,-88.47228,US,IL
Ashland,39.88783,-90.00789,US,IL
Assumption,39.52032,-89.04897,US,IL
Athens,39.96088,-89.72399,US,IL
Atwood,39.79948,-88.46228,US,IL
Auburn,39.59172,-89.74649,US,IL
Aviston,38.60672,-89.60759,US,IL
Barry,39.69421,-91.03902,US,IL
Beckemeyer,38.6056,-89.43592,US,IL
Bement,39.92198,-88.57201,US,IL
Benld,39.09282,-89.80398,US,IL
Benton,37.99672,-88.92007,US,IL
Bethalto,38.90921,-90.04066,US,IL
Bethany,39.64559,-88.73813,US,IL
Belleville,38.52005,-89.98399,US,IL
Blue Mound,39.70115,-89.12314,US,IL
Breese,38.6106,-89.52703,US,IL
Bridgeport,38.70588,-87.76003,US,IL
Brighton,39.03977,-90.14066,US,IL
Bunker Hill,39.04282,-89.95177,US,IL
Cahokia,38.57088,-90.19011,US,IL
Cairo,37.00533,-89.17646,US,IL
Cambria,37.78144,-89.11925,US,IL
Carbondale,37.72727,-89.21675,US,IL
Carlinville,39.27977,-89.88177,US,IL
Carlyle,38.61033,-89.37258,US,IL
Carmi,38.09088,-88.15865,US,IL
Carrier Mills,37.68422,-88.63283,US,IL
Carrollton,39.30227,-90.40706,US,IL
Carterville,37.76005,-89.0773,US,IL
Casey,39.2992,-87.99253,US,IL
Caseyville,38.63672,-90.02566,US,IL
Central City,38.54894,-89.12701,US,IL
Centralia,38.52505,-89.1334,US,IL
Centreville,38.58338,-90.12511,US,IL
Cerro Gordo,39.89059,-88.72813,US,IL
Charleston,39.49615,-88.17615,US,IL
Chatham,39.67616,-89.70454,US,IL
Chester,37.91366,-89.82205,US,IL
Chrisman,39.80365,-87.67364,US,IL
Christopher,37.97255,-89.05341,US,IL
Cobden,37.53144,-89.25342,US,IL
Collinsville,38.67033,-89.98455,US,IL
Columbia,38.44366,-90.20122,US,IL
Crainville,37.75199,-89.06785,US,IL
De Soto,37.81755,-89.22786,US,IL
Decatur,39.84031,-88.9548,US,IL
Divernon,39.56561,-89.65732,US,IL
Du Quoin,38.01144,-89.23619,US,IL
Dupo,38.51616,-90.21039,US,IL
East Alton,38.88033,-90.11122,US,IL
East Saint Louis,38.6245,-90.15094,US,IL
Edinburg,39.65727,-89.38953,US,IL
Edwardsville,38.81144,-89.95316,US,IL
Effingham,39.12004,-88.54338,US,IL
Eldorado,37.81366,-88.4381,US,IL
Elizabethtown,37.44588,-88.30504,US,IL
Energy,37.77394,-89.02646,US,IL
Fairfield,38.37894,-88.35977,US,IL
Fairmont City,38.64977,-90.09316,US,IL
Fairview Heights,38.58894,-89.99038,US,IL
Flora,38.66894,-88.4856,US,IL
Forsyth,39.93254,-88.95119,US,IL
Freeburg,38.42755,-89.91371,US,IL
Georgetown,39.97531,-87.63585,US,IL
Germantown,38.55366,-89.53842,US,IL
Gillespie,39.12977,-89.81954,US,IL
Glen Carbon,38.74838,-89.98316,US,IL
Girard,39.44644,-89.78093,US,IL
Godfrey,38.9556,-90.18678,US,IL
Golconda,37.36727,-88.48643,US,IL
Goreville,37.5545,-88.97229,US,IL
Grandview,39.81644,-89.61871,US,IL
Granite City,38.70144,-90.14872,US,IL
Grayville,38.25755,-87.99364,US,IL
Greenfield,39.34366,-90.21261,US,IL
Greenup,39.24782,-88.16337,US,IL
Greenville,38.89227,-89.41314,US,IL
Griggsville,39.70894,-90.72457,US,IL
Hardin,39.15671,-90.6179,US,IL
Harrisburg,37.73838,-88.54061,US,IL
Harristown,39.85393,-89.08397,US,IL
Hartford,38.83338,-90.09594,US,IL
Herrin,37.80311,-89.02757,US,IL
Highland,38.73949,-89.6712,US,IL
Hillsboro,39.16128,-89.4954,US,IL
Holiday Shores,38.92199,-89.94066,US,IL
Ina,38.15116,-88.90396,US,IL
Jacksonville,39.73394,-90.22901,US,IL
Jerome,39.76755,-89.68066,US,IL
Jerseyville,39.12005,-90.32845,US,IL
Johnston City,37.82061,-88.92757,US,IL
Jonesboro,37.45172,-89.26814,US,IL
Kincaid,39.58866,-89.41454,US,IL
Lawrenceville,38.72921,-87.68169,US,IL
Lebanon,38.60394,-89.80732,US,IL
Leland Grove,39.777,-89.67927,US,IL
Litchfield,39.17533,-89.65426,US,IL
Long Creek,39.81198,-88.84757,US,IL
Louisville,38.77227,-88.50255,US,IL
Lovington,39.71559,-88.63256,US,IL
Macon,39.71282,-88.99702,US,IL
Madison,38.68255,-90.15705,US,IL
Marion,37.73061,-88.93313,US,IL
Marissa,38.25005,-89.7501,US,IL
Marshall,39.39143,-87.69364,US,IL
Martinsville,39.33559,-87.88198,US,IL
Maryville,38.72366,-89.95593,US,IL
Mascoutah,38.49033,-89.79315,US,IL
Mattoon,39.48309,-88.37283,US,IL
McLeansboro,38.09338,-88.53561,US,IL
Meredosia,39.83116,-90.55957,US,IL
Metropolis,37.15117,-88.732,US,IL
Millstadt,38.46144,-90.09178,US,IL
Mitchell,38.76199,-90.08538,US,IL
Morrisonville,39.42005,-89.45565,US,IL
Mound City,37.08533,-89.16257,US,IL
Mount Carmel,38.41088,-87.76142,US,IL
Mount Olive,39.07227,-89.72731,US,IL
Mount Sterling,39.98727,-90.76346,US,IL
Mount Vernon,38.31727,-88.90312,US,IL
Mount Zion,39.77143,-88.87424,US,IL
Moweaqua,39.62476,-89.01897,US,IL
Murphysboro,37.7645,-89.33509,US,IL
Nashville,38.34366,-89.38064,US,IL
Neoga,39.31948,-88.45283,US,IL
New Athens,38.32644,-89.87705,US,IL
New Baden,38.53505,-89.70065,US,IL
New Berlin,39.72533,-89.91066,US,IL
Nokomis,39.30116,-89.28508,US,IL
Norris City,37.98116,-88.32921,US,IL
O'Fallon,38.59227,-89.91121,US,IL
Oblong,39.00199,-87.90892,US,IL
Odin,38.61727,-89.05229,US,IL
Okawville,38.43422,-89.55037,US,IL
Olney,38.73088,-88.08532,US,IL
Palestine,39.00365,-87.6128,US,IL
Pana,39.38893,-89.08008,US,IL
Paris,39.61115,-87.69614,US,IL
Pawnee,39.59172,-89.58037,US,IL
Payson,39.81699,-91.24237,US,IL
Pinckneyville,38.08033,-89.38203,US,IL
Pittsfield,39.60783,-90.80513,US,IL
Pontoon Beach,38.73172,-90.08038,US,IL
Quincy,39.9356,-91.40987,US,IL
Ramsey,39.14449,-89.10868,US,IL
Raymond,39.31949,-89.57204,US,IL
Red Bud,38.21172,-89.99427,US,IL
Riverton,39.84422,-89.53954,US,IL
Robinson,39.00532,-87.73919,US,IL
Rochester,39.74949,-89.53176,US,IL
Roodhouse,39.48394,-90.37151,US,IL
Rosewood Heights,38.88783,-90.08483,US,IL
Rosiclare,37.42366,-88.34615,US,IL
Roxana,38.84838,-90.07622,US,IL
Royalton,37.87699,-89.11452,US,IL
Saint Elmo,39.02727,-88.84811,US,IL
Saint Jacob,38.71394,-89.76815,US,IL
Salem,38.62699,-88.94562,US,IL
Sandoval,38.6156,-89.11423,US,IL
Sesser,38.09172,-89.05035,US,IL
Shawneetown,37.7131,-88.1867,US,IL
Shelbyville,39.40643,-88.79007,US,IL
Sherman,39.89366,-89.60482,US,IL
Shiloh,38.56144,-89.89732,US,IL
Smithton,38.40866,-89.99205,US,IL
South Jacksonville,39.70866,-90.22818,US,IL
South Roxana,38.82949,-90.06288,US,IL
Southern View,39.75727,-89.65371,US,IL
Sparta,38.12311,-89.70177,US,IL
Springfield,39.80172,-89.64371,US,IL
Staunton,39.01227,-89.79121,US,IL
Steeleville,38.00727,-89.65843,US,IL
Sullivan,39.59948,-88.60784,US,IL
Sumner,38.71699,-87.86142,US,IL
Swansea,38.53394,-89.98899,US,IL
Taylorville,39.54894,-89.29453,US,IL
Teutopolis,39.1331,-88.47199,US,IL
Toledo,39.27365,-88.24365,US,IL
Tolono,39.98614,-88.25894,US,IL
Trenton,38.6056,-89.68204,US,IL
Troy,38.72921,-89.88315,US,IL
Tuscola,39.7992,-88.2831,US,IL
Upper Alton,38.91144,-90.15066,US,IL
Valmeyer,38.30561,-90.27651,US,IL
Vandalia,38.9606,-89.09368,US,IL
Venice,38.67227,-90.16983,US,IL
Vienna,37.41533,-88.89784,US,IL
Villa Grove,39.86281,-88.16227,US,IL
Virden,39.50089,-89.76787,US,IL
Virginia,39.95116,-90.21234,US,IL
Wamac,38.50894,-89.14063,US,IL
Warrensburg,39.93282,-89.06203,US,IL
Washington Park,38.63505,-90.09289,US,IL
Waterloo,38.33589,-90.14983,US,IL
Wayne City,38.34533,-88.58783,US,IL
Waverly,39.59172,-89.95288,US,IL
West Frankfort,37.89783,-88.93146,US,IL
White Hall,39.43699,-90.40318,US,IL
Williamsville,39.95422,-89.54871,US,IL
Winchester,39.62977,-90.45624,US,IL
Windsor,39.44087,-88.59478,US,IL
Wood River,38.86116,-90.09761,US,IL
Worden,38.93144,-89.83899,US,IL
Zeigler,37.89949,-89.05202,US,IL
Austin,38.75839,-85.80803,US,IN
Avon,39.76282,-86.39972,US,IN
Bargersville,39.52088,-86.16777,US,IN
Batesville,39.30005,-85.22218,US,IN
Bedford,38.86116,-86.48721,US,IN
Beech Grove,39.72199,-86.08998,US,IN
Bicknell,38.77421,-87.30779,US,IN
Bloomfield,39.02699,-86.93751,US,IN
Bloomington,39.16533,-86.52639,US,IN
Boonville,38.04921,-87.27417,US,IN
Brazil,39.52365,-87.12502,US,IN
Bright,39.21839,-84.85606,US,IN
Broad Ripple,39.86671,-86.14165,US,IN
Brooklyn,39.53921,-86.36916,US,IN
Brookville,39.42311,-85.01274,US,IN
Brownsburg,39.84338,-86.39777,US,IN
Brownstown,38.87894,-86.04192,US,IN
Cambridge City,39.81255,-85.17163,US,IN
Cannelton,37.91144,-86.74443,US,IN
Carmel,39.97837,-86.11804,US,IN
Cayuga,39.94865,-87.45974,US,IN
Centerville,39.81782,-84.99635,US,IN
Chandler,38.04171,-87.36806,US,IN
Charlestown,38.45312,-85.67024,US,IN
Clarksville,38.29674,-85.75996,US,IN
Clermont,39.80977,-86.32249,US,IN
Clinton,39.65698,-87.39807,US,IN
Cloverdale,39.51477,-86.7939,US,IN
Columbus,39.20144,-85.92138,US,IN
Connersville,39.64116,-85.14107,US,IN
Corydon,38.21201,-86.12192,US,IN
Country Squire Lakes,39.03478,-85.69858,US,IN
Crothersville,38.80061,-85.84164,US,IN
Cumberland,39.77615,-85.9572,US,IN
Dale,38.16894,-86.99,US,IN
Danville,39.7606,-86.52639,US,IN
Darmstadt,38.09921,-87.57891,US,IN
Dillsboro,39.01783,-85.05884,US,IN
Edinburgh,39.35422,-85.96666,US,IN
Ellettsville,39.23393,-86.625,US,IN
English,38.3345,-86.46415,US,IN
Evansville,37.97476,-87.55585,US,IN
Fairview Park,39.68031,-87.41752,US,IN
Farmersburg,39.24865,-87.38196,US,IN
Ferdinand,38.22394,-86.86222,US,IN
Fishers,39.95559,-86.01387,US,IN
Fort Branch,38.25116,-87.58113,US,IN
Fortville,39.93226,-85.84804,US,IN
French Lick,38.54894,-86.61999,US,IN
Galena,38.35173,-85.94164,US,IN
Geneva,39.39172,-85.71998,US,IN
Georgetown,38.29451,-85.97552,US,IN
Greencastle,39.64449,-86.86473,US,IN
Greendale,39.11256,-84.86412,US,IN
Greenfield,39.78504,-85.76942,US,IN
Greensburg,39.33727,-85.48358,US,IN
Greenwood,39.61366,-86.10665,US,IN
Hagerstown,39.91116,-85.16163,US,IN
Hanover,38.71423,-85.47357,US,IN
Haubstadt,38.20504,-87.57419,US,IN
Henryville,38.54173,-85.76774,US,IN
Hidden Valley,39.16228,-84.84301,US,IN
Highland,38.03976,-87.57307,US,IN
Hope,39.30394,-85.77137,US,IN
Huntingburg,38.29894,-86.955,US,IN
Indianapolis,39.76838,-86.15804,US,IN
Ingalls,39.95699,-85.80526,US,IN
Jasonville,39.1631,-87.19918,US,IN
Jasper,38.39144,-86.93111,US,IN
Jeffersonville,38.27757,-85.73718,US,IN
Knightstown,39.7956,-85.52636,US,IN
Lawrence,39.83865,-86.02526,US,IN
Lawrenceburg,39.09089,-84.84995,US,IN
Liberty,39.6356,-84.93107,US,IN
Linton,39.03477,-87.16585,US,IN
Loogootee,38.67699,-86.91417,US,IN
Lowell,39.25311,-85.94638,US,IN
Madison,38.73589,-85.37996,US,IN
Martinsville,39.42783,-86.42833,US,IN
McCordsville,39.9081,-85.92276,US,IN
Melody Hill,38.02615,-87.51585,US,IN
Meridian Hills,39.89004,-86.15721,US,IN
Middlebury,39.26421,-87.1189,US,IN
Milan,39.12117,-85.13135,US,IN
Mitchell,38.73283,-86.4736,US,IN
Monrovia,39.57894,-86.48222,US,IN
Montezuma,39.79282,-87.37085,US,IN
Mooresville,39.61282,-86.37416,US,IN
Morristown,39.67338,-85.69859,US,IN
Mount Vernon,37.93227,-87.89503,US,IN
Nashville,39.20727,-86.2511,US,IN
New Albany,38.28562,-85.82413,US,IN
New Castle,39.92894,-85.37025,US,IN
New Palestine,39.72199,-85.88915,US,IN
New Whiteland,39.5581,-86.09526,US,IN
Newburgh,37.94449,-87.40529,US,IN
Newport,39.8842,-87.40863,US,IN
North Madison,38.76784,-85.39663,US,IN
North Terre Haute,39.52781,-87.3603,US,IN
North Vernon,39.00617,-85.62358,US,IN
Oak Park,38.30562,-85.69635,US,IN
Oakland City,38.33866,-87.34501,US,IN
Odon,38.84283,-86.9914,US,IN
Oolitic,38.90088,-86.52527,US,IN
Orleans,38.66172,-86.45166,US,IN
Osgood,39.12922,-85.29163,US,IN
Owensville,38.27199,-87.6878,US,IN
Paoli,38.55617,-86.46832,US,IN
Pendleton,39.99754,-85.74664,US,IN
Petersburg,38.49199,-87.27862,US,IN
Pittsboro,39.86393,-86.46694,US,IN
Plainfield,39.70421,-86.39944,US,IN
Poseyville,38.17004,-87.78308,US,IN
Princes Lakes,39.35366,-86.09805,US,IN
Princeton,38.35532,-87.56752,US,IN
Richmond,39.82894,-84.89024,US,IN
Rising Sun,38.9495,-84.85384,US,IN
Rockport,39.88087,-87.2789,US,IN
Rockville,39.76254,-87.22918,US,IN
Rockport,37.88311,-87.04944,US,IN
Rushville,39.60921,-85.44636,US,IN
Saint Paul,39.4281,-85.62831,US,IN
Salem,38.60561,-86.10109,US,IN
Santa Claus,38.12005,-86.91416,US,IN
Scottsburg,38.68561,-85.77025,US,IN
Seelyville,39.49198,-87.26724,US,IN
Sellersburg,38.39812,-85.75496,US,IN
Seymour,38.95922,-85.89025,US,IN
Shelbyville,39.52144,-85.77692,US,IN
Shelburn,39.17837,-87.39363,US,IN
Shoals,38.66644,-86.79111,US,IN
Southport,39.66505,-86.12776,US,IN
Speedway,39.80227,-86.26721,US,IN
Spencer,39.28671,-86.76251,US,IN
Sullivan,39.09532,-87.40585,US,IN
Sunman,39.237,-85.09468,US,IN
Tell City,37.95144,-86.76777,US,IN
Terre Haute,39.4667,-87.41391,US,IN
Trafalgar,39.41616,-86.15082,US,IN
Versailles,39.072,-85.2519,US,IN
Vevay,38.74784,-85.06717,US,IN
Vincennes,38.67727,-87.52863,US,IN
Warren Park,39.78199,-86.05026,US,IN
Washington,38.65922,-87.17279,US,IN
Waterloo,39.56255,-86.19749,US,IN
West Terre Haute,39.46504,-87.45002,US,IN
Westport,39.17589,-85.57303,US,IN
Whiteland,39.55005,-86.07971,US,IN
Whitestown,39.99726,-86.34583,US,IN
Worthington,39.12504,-86.97945,US,IN
Zionsville,39.95087,-86.26194,US,IN
Abilene,38.91722,-97.21391,US,KS
Alma,39.01667,-96.28916,US,KS
Altamont,37.19034,-95.29719,US,KS
Andover,37.7139,-97.13643,US,KS
Anthony,37.15336,-98.03117,US,KS
Arkansas City,37.06197,-97.03837,US,KS
Arma,37.54394,-94.70024,US,KS
Ashland,37.18864,-99.76568,US,KS
Atchison,39.56305,-95.12164,US,KS
Auburn,38.90611,-95.8161,US,KS
Augusta,37.68668,-96.9767,US,KS
Baldwin City,38.77501,-95.18636,US,KS
Basehor,39.14167,-94.93858,US,KS
Baxter Springs,37.02368,-94.7355,US,KS
Bellaire,37.76251,-97.26699,US,KS
Belle Plaine,37.39391,-97.28115,US,KS
Belleville,39.82445,-97.63254,US,KS
Beloit,39.45612,-98.10616,US,KS
Blue Rapids,39.68194,-96.65974,US,KS
Bonner Springs,39.05973,-94.88358,US,KS
Buhler,38.13445,-97.77005,US,KS
Burlington,38.19447,-95.74276,US,KS
Caldwell,37.03225,-97.60699,US,KS
Caney,37.01146,-95.93526,US,KS
Carbondale,38.81862,-95.68915,US,KS
Chanute,37.67921,-95.4572,US,KS
Chapman,38.97222,-97.02251,US,KS
Cheney,37.63001,-97.78255,US,KS
Cherryvale,37.27034,-95.55248,US,KS
Chetopa,37.03729,-95.08996,US,KS
Clay Center,37.51946,-96.77114,US,KS
Clay Center,39.37694,-97.12474,US,KS
Clearwater,37.5028,-97.50449,US,KS
Coffeyville,37.0373,-95.61637,US,KS
Coldwater,37.26891,-99.32678,US,KS
Columbus,37.16923,-94.84412,US,KS
Colwich,37.77918,-97.53644,US,KS
Concordia,39.57084,-97.66254,US,KS
Conway Springs,37.3903,-97.64227,US,KS
Cottonwood Falls,38.37224,-96.54278,US,KS
Council Grove,38.66112,-96.49195,US,KS
De Soto,38.97917,-94.96858,US,KS
Derby,37.54557,-97.26893,US,KS
Douglass,37.51946,-97.01281,US,KS
Edgerton,38.76473,-95.00802,US,KS
Edwardsville,39.06112,-94.81968,US,KS
El Dorado,37.81724,-96.86225,US,KS
Ellinwood,38.35557,-98.58091,US,KS
Ellis,38.93807,-99.56067,US,KS
Ellsworth,38.73056,-98.22811,US,KS
Elwood,39.75555,-94.87247,US,KS
Emporia,38.4039,-96.18166,US,KS
Erie,37.56811,-95.24331,US,KS
Eureka,37.82392,-96.28917,US,KS
Eudora,38.94334,-95.09858,US,KS
Fairway,39.02223,-94.6319,US,KS
Fort Scott,37.83976,-94.7083,US,KS
Fredonia,37.53394,-95.82665,US,KS
Galena,37.0759,-94.63967,US,KS
Frontenac,37.4556,-94.68913,US,KS
Gardner,38.81084,-94.92719,US,KS
Garnett,38.28058,-95.24192,US,KS
Girard,37.51116,-94.83802,US,KS
Goddard,37.65974,-97.57533,US,KS
Grandview Plaza,39.02916,-96.78917,US,KS
Great Bend,38.36446,-98.76481,US,KS
Greensburg,37.6028,-99.29261,US,KS
Halstead,38.0014,-97.50865,US,KS
Harper,37.28669,-98.02589,US,KS
Haven,37.8989,-97.78283,US,KS
Hays,38.87918,-99.32677,US,KS
Haysville,37.56446,-97.35227,US,KS
Herington,38.67112,-96.94251,US,KS
Hesston,38.13834,-97.43143,US,KS
Hiawatha,39.8525,-95.53582,US,KS
Highland,39.85972,-95.2697,US,KS
Hill City,39.36473,-99.84206,US,KS
Hillsboro,38.35196,-97.20447,US,KS
Hoisington,38.51807,-98.77814,US,KS
Holton,39.46527,-95.73637,US,KS
Horton,39.66056,-95.52637,US,KS
Howard,37.47031,-96.26361,US,KS
Humboldt,37.8106,-95.43693,US,KS
Hutchinson,38.06084,-97.92977,US,KS
Independence,37.22424,-95.70831,US,KS
Inman,38.23195,-97.77338,US,KS
Iola,37.92448,-95.39998,US,KS
Jetmore,38.08446,-99.89346,US,KS
Junction City,39.02861,-96.8314,US,KS
Kansas City,39.11417,-94.62746,US,KS
Kechi,37.79585,-97.27949,US,KS
Kingman,37.64585,-98.11367,US,KS
Kinsley,37.92307,-99.40984,US,KS
Kiowa,37.01725,-98.48535,US,KS
La Crosse,38.5314,-99.30872,US,KS
La Cygne,38.35002,-94.76135,US,KS
Lansing,39.24861,-94.90024,US,KS
Larned,38.18057,-99.09871,US,KS
Lawrence,38.97167,-95.23525,US,KS
Leavenworth,39.31111,-94.92246,US,KS
Leawood,38.96667,-94.6169,US,KS
Lenexa,38.95362,-94.73357,US,KS
Lincoln,39.04084,-98.14477,US,KS
Lindsborg,38.57362,-97.67448,US,KS
Louisburg,38.61946,-94.68079,US,KS
Lyndon,38.61001,-95.68443,US,KS
Lyons,38.34501,-98.20173,US,KS
Maize,37.77918,-97.46727,US,KS
Manhattan,39.18361,-96.57167,US,KS
Mankato,39.78723,-98.21005,US,KS
Marion,38.34835,-97.01725,US,KS
Marysville,39.84111,-96.64724,US,KS
McPherson,38.37084,-97.66421,US,KS
Medicine Lodge,37.28113,-98.58036,US,KS
Merriam,39.02362,-94.69357,US,KS
Minneapolis,39.12194,-97.7067,US,KS
Mission,39.02778,-94.65579,US,KS
Mission Hills,39.01778,-94.6169,US,KS
Mound City,38.14281,-94.81357,US,KS
Moundridge,38.20307,-97.51921,US,KS
Mulvane,37.47446,-97.24393,US,KS
Neodesha,37.41839,-95.68026,US,KS
Ness City,38.45279,-99.90651,US,KS
Newton,38.04668,-97.34504,US,KS
Nickerson,38.14723,-98.08367,US,KS
North Newton,38.07223,-97.34559,US,KS
Norton,39.83389,-99.89151,US,KS
Ogden,39.11111,-96.70612,US,KS
Olathe,38.8814,-94.81913,US,KS
Osage City,38.6339,-95.82582,US,KS
Osawatomie,38.49724,-94.95052,US,KS
Osborne,39.43914,-98.69624,US,KS
Oskaloosa,39.21528,-95.31275,US,KS
Oswego,37.16757,-95.10996,US,KS
Ottawa,38.61557,-95.26775,US,KS
Overbrook,38.78056,-95.5572,US,KS
Overland Park,38.98223,-94.67079,US,KS
Oxford,37.27419,-97.16893,US,KS
Paola,38.57224,-94.87913,US,KS
Park City,37.80001,-97.31838,US,KS
Parsons,37.34034,-95.26108,US,KS
Peabody,38.16946,-97.1067,US,KS
Phillipsburg,39.75612,-99.32399,US,KS
Pittsburg,37.41088,-94.70496,US,KS
Plainville,39.23473,-99.29816,US,KS
Pleasanton,38.17781,-94.71135,US,KS
Prairie Village,38.99167,-94.63357,US,KS
Pratt,37.64391,-98.73759,US,KS
Roeland Park,39.03751,-94.63218,US,KS
Rose Hill,37.55835,-97.13504,US,KS
Rossville,39.13611,-95.95166,US,KS
Russell,38.89527,-98.86103,US,KS
Sabetha,39.90222,-95.80082,US,KS
Saint John,38.00224,-98.76009,US,KS
Saint Marys,39.19416,-96.0711,US,KS
Saint Marys,37.70668,-97.64005,US,KS
Salina,38.84028,-97.61142,US,KS
Sedan,37.12672,-96.18694,US,KS
Sedgwick,37.91668,-97.42254,US,KS
Seneca,39.83416,-96.06417,US,KS
Shawnee,39.04167,-94.72024,US,KS
Silver Lake,39.10417,-95.8586,US,KS
Smith Center,39.77918,-98.78507,US,KS
Solomon,38.91944,-97.37114,US,KS
South Hutchinson,38.02807,-97.94033,US,KS
Spring Hill,38.74306,-94.82552,US,KS
Stafford,37.96224,-98.60064,US,KS
Sterling,38.21001,-98.20701,US,KS
Tonganoxie,39.10972,-95.08775,US,KS
Towanda,37.79752,-96.99976,US,KS
Topeka,39.04833,-95.67804,US,KS
Troy,39.78305,-95.08997,US,KS
Valley Center,37.83473,-97.37338,US,KS
Valley Falls,39.34333,-95.46025,US,KS
Victoria,38.85279,-99.1476,US,KS
WaKeeney,39.02501,-99.87957,US,KS
Wamego,39.20194,-96.305,US,KS
Washington,39.81806,-97.05086,US,KS
Wathena,39.75916,-94.94969,US,KS
Wellington,37.2653,-97.37171,US,KS
Wellsville,38.71834,-95.08164,US,KS
Westmoreland,39.39389,-96.41361,US,KS
Westwood,39.04056,-94.6169,US,KS
Wichita,37.69224,-97.33754,US,KS
Winfield,37.23975,-96.99559,US,KS
Yates Center,37.88115,-95.73332,US,KS
Albany,36.6909,-85.13468,US,KY
Alexandria,38.95951,-84.38799,US,KY
Anchorage,38.26674,-85.53302,US,KY
Annville,37.31925,-83.97048,US,KY
Ashland,38.47841,-82.63794,US,KY
Auburn,36.86421,-86.71027,US,KY
Audubon Park,38.20396,-85.72524,US,KY
Augusta,38.77174,-84.00576,US,KY
Barbourmeade,38.29729,-85.60329,US,KY
Barbourville,36.86648,-83.88881,US,KY
Bardstown,37.80923,-85.4669,US,KY
Bardwell,36.87061,-89.00979,US,KY
Beattyville,37.57175,-83.70686,US,KY
Beaver Dam,37.40199,-86.87583,US,KY
Bedford,38.59256,-85.31773,US,KY
Beechwood Village,38.25479,-85.63135,US,KY
Bellevue,39.10645,-84.47883,US,KY
Benton,36.85728,-88.35031,US,KY
Berea,37.56869,-84.29632,US,KY
Booneville,37.4762,-83.67491,US,KY
Bowling Green,36.99032,-86.4436,US,KY
Brandenburg,37.99896,-86.16941,US,KY
Breckinridge Center,37.68282,-87.86308,US,KY
Brodhead,37.40425,-84.41383,US,KY
Brooks,38.06118,-85.70968,US,KY
Brooksville,38.68257,-84.06576,US,KY
Brownsville,37.19255,-86.26775,US,KY
Buckner,38.38368,-85.43996,US,KY
Buechel,38.19507,-85.6519,US,KY
Burkesville,36.79034,-85.37052,US,KY
Burlington,39.02756,-84.72411,US,KY
Cadiz,36.86505,-87.8353,US,KY
Calhoun,37.53894,-87.25833,US,KY
Calvert City,37.03339,-88.35004,US,KY
Camargo,37.99425,-83.8877,US,KY
Campbellsville,37.3434,-85.34191,US,KY
Campton,37.73425,-83.54741,US,KY
Carlisle,38.31202,-84.02743,US,KY
Carrollton,38.6809,-85.1794,US,KY
Catlettsburg,38.4048,-82.60044,US,KY
Cave City,37.13672,-85.95692,US,KY
Central City,37.29393,-87.12333,US,KY
Claryville,38.91923,-84.39549,US,KY
Clay,37.47671,-87.82002,US,KY
Clay City,37.85925,-83.91853,US,KY
Clinton,36.66728,-88.9934,US,KY
Cloverport,37.83339,-86.63276,US,KY
Coal Run Village,37.51316,-82.55849,US,KY
Cold Spring,39.02173,-84.43994,US,KY
Coldstream,38.31479,-85.52385,US,KY
Columbia,37.10284,-85.30635,US,KY
Corbin,36.9487,-84.09688,US,KY
Covington,39.08367,-84.50855,US,KY
Crescent Springs,39.05145,-84.58161,US,KY
Crestview Hills,39.02728,-84.58494,US,KY
Crestwood,38.32424,-85.47246,US,KY
Crittenden,38.78284,-84.60522,US,KY
Cumberland,36.97815,-82.9885,US,KY
Cynthiana,38.39035,-84.2941,US,KY
Danville,37.64563,-84.77217,US,KY
Dawson Springs,37.16727,-87.69251,US,KY
Dayton,39.11284,-84.47272,US,KY
Dixon,37.51782,-87.69029,US,KY
Douglass Hills,38.23785,-85.55274,US,KY
Dry Ridge,38.68201,-84.58994,US,KY
Earlington,37.27421,-87.51194,US,KY
Eddyville,37.0945,-88.0803,US,KY
Edgewood,39.01867,-84.58189,US,KY
Edmonton,36.98006,-85.61219,US,KY
Elizabethtown,37.69395,-85.85913,US,KY
Elkfork,37.96481,-83.13295,US,KY
Elkton,36.81004,-87.15417,US,KY
Elsmere,39.01256,-84.60467,US,KY
Eminence,38.37007,-85.18051,US,KY
Erlanger,39.01673,-84.60078,US,KY
Fairdale,38.10507,-85.75885,US,KY
Falmouth,38.67674,-84.33021,US,KY
Fern Creek,38.15979,-85.58774,US,KY
Flatwoods,38.52258,-82.71711,US,KY
Flemingsburg,38.4223,-83.73381,US,KY
Florence,38.99895,-84.62661,US,KY
Fort Mitchell,39.0595,-84.54744,US,KY
Fort Thomas,39.07506,-84.44716,US,KY
Fort Wright,39.05173,-84.53411,US,KY
Francisville,39.10506,-84.72439,US,KY
Frankfort,38.20091,-84.87328,US,KY
Franklin,36.72226,-86.57722,US,KY
Frenchburg,37.95092,-83.62575,US,KY
Fulton,36.50423,-88.87423,US,KY
Georgetown,38.2098,-84.55883,US,KY
Glasgow,36.99588,-85.91192,US,KY
Graymoor-Devondale,38.27313,-85.62302,US,KY
Grayson,38.33258,-82.9485,US,KY
Greensburg,37.26089,-85.49885,US,KY
Greenup,38.57313,-82.83017,US,KY
Greenville,37.20115,-87.17889,US,KY
Guthrie,36.64838,-87.16639,US,KY
Hardinsburg,37.78006,-86.46053,US,KY
Harlan,36.84314,-83.32185,US,KY
Harrodsburg,37.7623,-84.84329,US,KY
Hartford,37.45116,-86.90916,US,KY
Hawesville,37.90006,-86.75499,US,KY
Hazard,37.24954,-83.19323,US,KY
Hebron,39.06589,-84.70106,US,KY
Hebron Estates,38.04951,-85.66607,US,KY
Henderson,37.83615,-87.59001,US,KY
Hendron,37.0395,-88.62922,US,KY
Hickman,36.57117,-89.18618,US,KY
Highland Heights,39.03312,-84.45189,US,KY
Highview,38.14285,-85.62413,US,KY
Hillview,38.06979,-85.68551,US,KY
Hindman,37.33593,-82.98044,US,KY
Hodgenville,37.57395,-85.73996,US,KY
Hopkinsville,36.86561,-87.49117,US,KY
Horse Cave,37.1795,-85.90692,US,KY
Hurstbourne Acres,38.22118,-85.58913,US,KY
Hurstbourne,38.23813,-85.58829,US,KY
Hyden,37.16093,-83.37324,US,KY
Independence,38.94312,-84.54411,US,KY
Indian Hills,38.27257,-85.66274,US,KY
Indian Hills Cherokee Section,38.27951,-85.64996,US,KY
Inez,37.86648,-82.53876,US,KY
Ironville,38.45647,-82.69238,US,KY
Irvine,37.70064,-83.97381,US,KY
Irvington,37.88034,-86.28386,US,KY
Jackson,37.55315,-83.38351,US,KY
Jackson,37.82508,-84.87079,US,KY
Jamestown,36.98479,-85.06301,US,KY
Jeffersontown,38.19424,-85.5644,US,KY
Jeffersonville,37.97369,-83.84186,US,KY
Jenkins,37.17344,-82.63099,US,KY
Junction City,37.58674,-84.79384,US,KY
Knottsville,37.77172,-86.90416,US,KY
La Center,37.07672,-88.97368,US,KY
La Grange,38.40757,-85.37885,US,KY
Lakeside Park,39.03562,-84.56911,US,KY
Lancaster,37.61952,-84.578,US,KY
Lawrenceburg,38.0373,-84.89662,US,KY
Lebanon,37.56979,-85.25274,US,KY
Lebanon Junction,37.83451,-85.7319,US,KY
Ledbetter,37.04756,-88.47699,US,KY
Leitchfield,37.48005,-86.29386,US,KY
Lewisport,37.937,-86.90221,US,KY
Lexington,37.98869,-84.47772,US,KY
Lexington-Fayette,38.0498,-84.45855,US,KY
Liberty,37.31841,-84.9394,US,KY
Livermore,37.4931,-87.13194,US,KY
London,37.12898,-84.08326,US,KY
Louisa,38.11425,-82.60321,US,KY
Louisville,38.25424,-85.75941,US,KY
Loyall,36.85203,-83.35407,US,KY
Ludlow,39.09256,-84.54744,US,KY
Lyndon,38.25674,-85.60163,US,KY
Madisonville,37.3281,-87.49889,US,KY
Manchester,37.1537,-83.76186,US,KY
Marion,37.33283,-88.08113,US,KY
Masonville,37.67505,-87.03472,US,KY
Massac,37.01672,-88.73061,US,KY
Mayfield,36.74172,-88.63672,US,KY
Maysville,38.64119,-83.74437,US,KY
McKee,37.43036,-83.99798,US,KY
Meads,38.41258,-82.70905,US,KY
Middlesboro,36.60842,-83.71658,US,KY
Middletown,38.24535,-85.53885,US,KY
Midway,38.15091,-84.68383,US,KY
Heritage Creek,38.12368,-85.71968,US,KY
Monticello,36.82979,-84.84911,US,KY
Monticello,37.9923,-84.55022,US,KY
Morehead,38.18397,-83.43268,US,KY
Morehead,37.27115,-87.17638,US,KY
Morganfield,37.68338,-87.91669,US,KY
Morgantown,37.2256,-86.6836,US,KY
Mount Olivet,38.53146,-84.03687,US,KY
Mount Sterling,38.05647,-83.94326,US,KY
Mount Vernon,38.02563,-84.49522,US,KY
Mount Vernon,37.35286,-84.34049,US,KY
Mount Washington,38.05006,-85.54579,US,KY
Munfordville,37.27228,-85.89108,US,KY
Murray,36.61033,-88.31476,US,KY
New Castle,38.4334,-85.16968,US,KY
Newburg,38.16007,-85.65968,US,KY
Newport,39.09145,-84.49578,US,KY
Nicholasville,37.88063,-84.573,US,KY
North Corbin,36.96064,-84.09326,US,KY
Northfield,38.28701,-85.64107,US,KY
Nortonville,37.19088,-87.45278,US,KY
Oak Grove,36.66505,-87.44279,US,KY
Oak Grove,37.34421,-86.75471,US,KY
Oakbrook,38.99978,-84.68522,US,KY
Okolona,38.14118,-85.68774,US,KY
Olive Hill,38.30008,-83.17407,US,KY
Orchard Grass Hills,38.32368,-85.52135,US,KY
Owensboro,37.77422,-87.11333,US,KY
Owenton,38.53672,-84.84338,US,KY
Owingsville,38.1448,-83.76408,US,KY
Paintsville,37.81454,-82.80711,US,KY
Park Hills,39.07145,-84.53217,US,KY
Paris,38.2098,-84.25299,US,KY
Pewee Valley,38.31062,-85.48746,US,KY
Pikeville,37.47927,-82.51876,US,KY
Pine Knot,36.65091,-84.43855,US,KY
Pineville,36.76203,-83.69492,US,KY
Pioneer Village,38.06062,-85.67774,US,KY
Plano,36.88032,-86.41832,US,KY
Pleasure Ridge Park,38.14535,-85.8583,US,KY
Prestonsburg,37.66565,-82.77155,US,KY
Princeton,37.10922,-87.88196,US,KY
Prospect,38.34507,-85.61552,US,KY
Providence,38.57451,-85.22107,US,KY
Providence,37.39755,-87.76279,US,KY
Raceland,38.54008,-82.7285,US,KY
Radcliff,37.84035,-85.94913,US,KY
Reidland,37.01756,-88.53143,US,KY
Richmond,37.74786,-84.29465,US,KY
Russell,38.5173,-82.69766,US,KY
Russell Springs,37.05618,-85.08857,US,KY
Russellville,36.84532,-86.88722,US,KY
Ryland Heights,38.95756,-84.463,US,KY
Saint Matthews,38.25285,-85.65579,US,KY
Saint Regis Park,38.22674,-85.61663,US,KY
Salyersville,37.75259,-83.06878,US,KY
Sandy Hook,38.08647,-83.12628,US,KY
Scottsville,36.75338,-86.19054,US,KY
Sebree,37.60699,-87.52862,US,KY
Shelbyville,38.21201,-85.22357,US,KY
Shepherdsville,37.9884,-85.71579,US,KY
Shively,38.20007,-85.82274,US,KY
Silver Grove,39.03451,-84.39022,US,KY
Simpsonville,38.22257,-85.35523,US,KY
Smithland,37.13894,-88.40337,US,KY
Somerset,37.09202,-84.60411,US,KY
South Shore,38.72091,-82.95823,US,KY
Southgate,39.072,-84.47272,US,KY
Springfield,37.68534,-85.22218,US,KY
Saint Dennis,38.1884,-85.8458,US,KY
Stanford,37.53119,-84.66189,US,KY
Stanton,37.84564,-83.85825,US,KY
Stearns,36.69897,-84.47744,US,KY
Sturgis,37.54671,-87.98391,US,KY
Taylor Mill,38.99756,-84.49633,US,KY
Taylorsville,38.03173,-85.34245,US,KY
Tompkinsville,36.70228,-85.69164,US,KY
Union,38.9459,-84.6805,US,KY
Uniontown,37.77532,-87.93058,US,KY
Van Lear,37.77121,-82.75794,US,KY
Valley Station,38.11118,-85.87024,US,KY
Vanceburg,38.59924,-83.3188,US,KY
Verona,38.8184,-84.66078,US,KY
Versailles,38.05258,-84.72995,US,KY
Villa Hills,39.06339,-84.593,US,KY
Vine Grove,37.81007,-85.98135,US,KY
Walton,38.87562,-84.61022,US,KY
Warsaw,38.7834,-84.90162,US,KY
West Buechel,38.19701,-85.66329,US,KY
West Liberty,37.92148,-83.25962,US,KY
Westwood,38.48314,-82.66988,US,KY
Whitesburg,37.11843,-82.82683,US,KY
Whitley City,36.72341,-84.47049,US,KY
Wickliffe,36.96478,-89.08923,US,KY
Wilder,39.05645,-84.48689,US,KY
Williamsburg,36.74342,-84.15966,US,KY
Williamstown,38.63812,-84.5605,US,KY
Wilmore,37.86202,-84.66161,US,KY
Winchester,37.99008,-84.17965,US,KY
Windy Hills,38.27396,-85.63441,US,KY
Worthington,38.54841,-82.72433,US,KY
Worthington Hills,38.30896,-85.5269,US,KY
Worthington,38.31562,-85.56163,US,KY
Abbeville,29.97465,-92.13429,US,LA
Abita Springs,30.47864,-90.04008,US,LA
Addis,30.3538,-91.26539,US,LA
Albany,30.50436,-90.58231,US,LA
Alexandria,31.31129,-92.44514,US,LA
Ama,29.95215,-90.29647,US,LA
Amelia,29.66632,-91.10204,US,LA
Amite,30.72657,-90.50898,US,LA
Arabi,29.95437,-90.00535,US,LA
Arcadia,32.54904,-92.92016,US,LA
Arnaudville,30.3977,-91.93151,US,LA
Avondale,29.91298,-90.20369,US,LA
Baker,30.58824,-91.16816,US,LA
Baldwin,29.83798,-91.54428,US,LA
Ball,31.41546,-92.4118,US,LA
Banks Springs,32.0821,-92.09291,US,LA
Barataria,29.72327,-90.12369,US,LA
Basile,30.4852,-92.59597,US,LA
Bastrop,32.75625,-91.87235,US,LA
Baton Rouge,30.45075,-91.15455,US,LA
Bawcomville,32.47042,-92.16736,US,LA
Bayou Cane,29.6241,-90.7512,US,LA
Bayou Gauche,29.78743,-90.41314,US,LA
Bayou Vista,29.68965,-91.27094,US,LA
Belle Chasse,29.85493,-89.99063,US,LA
Belle Rose,30.05048,-91.04149,US,LA
Benton,32.69487,-93.74185,US,LA
Bernice,32.82209,-92.65793,US,LA
Berwick,29.69465,-91.21899,US,LA
Blanchard,32.58098,-93.89268,US,LA
Bogalusa,30.79102,-89.84869,US,LA
Bossier City,32.51599,-93.73212,US,LA
Bourg,29.55355,-90.60231,US,LA
Boutte,29.90243,-90.38814,US,LA
Boyce,31.39046,-92.66931,US,LA
Breaux Bridge,30.27353,-91.89928,US,LA
Bridge City,29.93326,-90.17007,US,LA
Broussard,30.14715,-91.96123,US,LA
Brownsfield,30.54658,-91.12066,US,LA
Brownsville,32.48709,-92.1543,US,LA
Brusly,30.39436,-91.25372,US,LA
Bunkie,30.95325,-92.18263,US,LA
Cade,30.08742,-91.9054,US,LA
Cameron,29.79772,-93.32515,US,LA
Campti,31.8935,-93.11822,US,LA
Carencro,30.31714,-92.04901,US,LA
Carlyss,30.16882,-93.37599,US,LA
Carville,30.21742,-91.09621,US,LA
Catahoula,30.21464,-91.709,US,LA
Cecilia,30.33714,-91.85317,US,LA
Central,30.55435,-91.03677,US,LA
Chackbay,29.88354,-90.79732,US,LA
Chalmette,29.94296,-89.96537,US,LA
Charenton,29.88159,-91.52511,US,LA
Chauvin,29.43855,-90.59537,US,LA
Church Point,30.40298,-92.21513,US,LA
Claiborne,32.51598,-92.1918,US,LA
Clarks,32.02655,-92.13903,US,LA
Clinton,30.86574,-91.01566,US,LA
Colfax,31.51906,-92.70682,US,LA
Columbia,32.10516,-92.07791,US,LA
Convent,30.02076,-90.82982,US,LA
Cotton Valley,32.81931,-93.41767,US,LA
Cottonport,30.98408,-92.05346,US,LA
Covington,30.47549,-90.10042,US,LA
Coushatta,32.01488,-93.34212,US,LA
Crowley,30.21409,-92.37458,US,LA
Cullen,32.96903,-93.45073,US,LA
Cut Off,29.54272,-90.33814,US,LA
DeQuincy,30.45048,-93.43322,US,LA
DeRidder,30.84631,-93.28905,US,LA
Delcambre,29.94826,-91.98873,US,LA
Delhi,32.45764,-91.49317,US,LA
Denham Springs,30.4874,-90.95753,US,LA
Des Allemands,29.82382,-90.47508,US,LA
Destrehan,29.94322,-90.35345,US,LA
Deville,31.3574,-92.16541,US,LA
Donaldsonville,30.10103,-90.99288,US,LA
Dulac,29.38883,-90.71398,US,LA
Duson,30.23576,-92.1854,US,LA
Eastwood,32.55626,-93.56712,US,LA
Eden Isle,30.22853,-89.79867,US,LA
Edgard,30.04326,-90.56009,US,LA
Elmwood,29.95659,-90.1898,US,LA
Elton,30.48131,-92.6957,US,LA
Erath,29.95826,-92.03596,US,LA
Erwinville,30.53102,-91.40789,US,LA
Estelle,29.84576,-90.10674,US,LA
Eunice,30.49437,-92.41763,US,LA
Farmerville,32.77347,-92.4057,US,LA
Ferriday,31.63017,-91.55456,US,LA
Franklin,29.79604,-91.5015,US,LA
Franklinton,30.84731,-90.15527,US,LA
French Settlement,30.29519,-90.7951,US,LA
Galliano,29.44216,-90.29925,US,LA
Gardere,30.34575,-91.14011,US,LA
Garyville,30.05604,-90.61926,US,LA
Glenmora,30.97658,-92.58514,US,LA
Golden Meadow,29.37911,-90.26008,US,LA
Gonzales,30.23853,-90.9201,US,LA
Grambling,32.52765,-92.71404,US,LA
Gramercy,30.04742,-90.68981,US,LA
Grand Isle,29.23662,-89.98729,US,LA
Grand Point,30.06131,-90.75343,US,LA
Gray,29.69771,-90.78648,US,LA
Greensburg,30.83074,-90.67176,US,LA
Greenwood,32.44293,-93.97296,US,LA
Greenwood,30.54491,-91.10677,US,LA
Gretna,29.91465,-90.05396,US,LA
Gueydan,30.02604,-92.50847,US,LA
Hackberry,29.99605,-93.3421,US,LA
Hahnville,29.97659,-90.40897,US,LA
Hammond,30.50463,-90.46293,US,LA
Harahan,29.94048,-90.20313,US,LA
Harrisonburg,31.77211,-91.82152,US,LA
Harvey,29.90354,-90.07729,US,LA
Haughton,32.53265,-93.50406,US,LA
Haynesville,32.96208,-93.14016,US,LA
Henderson,30.31325,-91.79039,US,LA
Homer,32.79181,-93.05572,US,LA
Houma,29.59577,-90.71953,US,LA
Independence,30.63551,-90.50335,US,LA
Inniswold,30.40491,-91.08344,US,LA
Iota,30.33131,-92.49569,US,LA
Iowa,30.23687,-93.01376,US,LA
Jackson,30.8374,-91.21761,US,LA
Jean Lafitte,29.73604,-90.12674,US,LA
Jeanerette,29.91104,-91.66345,US,LA
Jefferson,29.96604,-90.15313,US,LA
Jena,31.68323,-92.13374,US,LA
Jennings,30.22243,-92.65708,US,LA
Jonesboro,32.24127,-92.71599,US,LA
Jonesville,31.62656,-91.81818,US,LA
Kaplan,29.99798,-92.28485,US,LA
Kenner,29.99409,-90.24174,US,LA
Kentwood,30.93824,-90.50898,US,LA
Killian,30.35881,-90.5862,US,LA
Kinder,30.48548,-92.8507,US,LA
Krotz Springs,30.53686,-91.75289,US,LA
Labadieville,29.83743,-90.95621,US,LA
Lacombe,30.31353,-89.94313,US,LA
Lafayette,30.22409,-92.01984,US,LA
Lake Arthur,30.08076,-92.67153,US,LA
Lake Charles,30.21309,-93.2044,US,LA
Lake Providence,32.8043,-91.17011,US,LA
Lakeshore,32.53514,-92.02958,US,LA
Laplace,30.06698,-90.48147,US,LA
Larose,29.57244,-90.38175,US,LA
Lawtell,30.51853,-92.18485,US,LA
Lecompte,31.09463,-92.40041,US,LA
Leesville,31.14352,-93.261,US,LA
Leonville,30.47047,-91.97845,US,LA
Livingston,30.50213,-90.74787,US,LA
Livonia,30.55908,-91.55594,US,LA
Lockport,29.64605,-90.53925,US,LA
Lockport Heights,29.65049,-90.54647,US,LA
Logansport,31.97545,-93.99797,US,LA
Luling,29.93215,-90.36647,US,LA
Lutcher,30.04048,-90.69898,US,LA
Mamou,30.63381,-92.4193,US,LA
Mandeville,30.35825,-90.06563,US,LA
Mansfield,32.03766,-93.70018,US,LA
Mansura,31.05797,-92.04901,US,LA
Many,31.56878,-93.48406,US,LA
Maringouin,30.4913,-91.51955,US,LA
Marksville,31.12797,-92.06624,US,LA
Marrero,29.89937,-90.10035,US,LA
Mathews,29.68632,-90.54675,US,LA
Melville,30.69297,-91.744,US,LA
Meraux,29.93017,-89.91623,US,LA
Merrydale,30.5013,-91.10844,US,LA
Merryville,30.75437,-93.54045,US,LA
Metairie,29.98409,-90.15285,US,LA
Metairie Terrace,29.97854,-90.16396,US,LA
Midway,31.69212,-92.15236,US,LA
Milton,30.10381,-92.07651,US,LA
Minden,32.61543,-93.28684,US,LA
Minorca,31.57933,-91.48179,US,LA
Monroe,32.50931,-92.1193,US,LA
Montegut,30.07076,-90.50203,US,LA
Montegut,29.47439,-90.55703,US,LA
Monticello,30.48908,-91.04872,US,LA
Montz,30.00687,-90.46869,US,LA
Morgan City,29.69937,-91.20677,US,LA
Moss Bluff,30.3027,-93.19071,US,LA
Napoleonville,29.94048,-91.02482,US,LA
Natalbany,30.54622,-90.48619,US,LA
Natchitoches,31.76072,-93.08627,US,LA
New Iberia,30.00354,-91.81873,US,LA
New Llano,31.11491,-93.27155,US,LA
New Orleans,29.95465,-90.07507,US,LA
New Roads,30.70157,-91.43622,US,LA
New Sarpy,29.97817,-90.38963,US,LA
Newellton,32.07265,-91.24095,US,LA
Norco,29.99909,-90.4123,US,LA
North Vacherie,29.99687,-90.70565,US,LA
Oak Grove,32.86096,-91.38845,US,LA
Oak Hills Place,30.35992,-91.0876,US,LA
Oakdale,30.81603,-92.66042,US,LA
Oakdale,30.80547,-92.62153,US,LA
Oberlin,30.6202,-92.76265,US,LA
Oil City,32.74403,-93.97157,US,LA
Old Jefferson,30.38269,-91.01705,US,LA
Olla,31.90294,-92.24319,US,LA
Opelousas,30.53353,-92.08151,US,LA
Ossun,30.27603,-92.11235,US,LA
Paradis,29.87965,-90.43397,US,LA
Patterson,29.69326,-91.30205,US,LA
Paulina,30.02631,-90.71315,US,LA
Pearl River,30.37603,-89.7484,US,LA
Pierre Part,29.9652,-91.20316,US,LA
Pine Prairie,30.78381,-92.42541,US,LA
Pineville,31.3224,-92.4343,US,LA
Plain Dealing,32.90514,-93.69684,US,LA
Plaquemine,30.28908,-91.23427,US,LA
Ponchatoula,30.4388,-90.44148,US,LA
Port Allen,30.45214,-91.21011,US,LA
Port Barre,30.5602,-91.95401,US,LA
Port Sulphur,29.48049,-89.69395,US,LA
Poydras,29.86937,-89.88895,US,LA
Prairieville,30.30297,-90.97205,US,LA
Presquille,29.56383,-90.6462,US,LA
Prien,30.18187,-93.27377,US,LA
Raceland,29.72743,-90.59898,US,LA
Rayne,30.23493,-92.26846,US,LA
Rayville,32.47736,-91.75485,US,LA
Reserve,30.05381,-90.55175,US,LA
Richwood,32.44876,-92.08486,US,LA
Ringgold,32.32849,-93.27989,US,LA
River Ridge,29.9602,-90.21563,US,LA
Roseland,30.76491,-90.51176,US,LA
Rosepine,30.91991,-93.28239,US,LA
Ruston,32.52321,-92.63793,US,LA
Saint Francisville,30.7799,-91.3765,US,LA
Saint Gabriel,30.2577,-91.09927,US,LA
Saint Joseph,31.91849,-91.23345,US,LA
Saint Martinville,30.1252,-91.83345,US,LA
Saint Rose,29.94687,-90.32313,US,LA
Schriever,29.74215,-90.81037,US,LA
Scott,30.23576,-92.09457,US,LA
Shenandoah,30.4013,-91.00094,US,LA
Shreveport,32.52515,-93.75018,US,LA
Sibley,32.53932,-93.29628,US,LA
Simmesport,30.98352,-91.80012,US,LA
Slidell,30.27519,-89.78117,US,LA
Sorrento,30.18436,-90.85926,US,LA
South Vacherie,29.92743,-90.69981,US,LA
Springhill,33.00597,-93.46684,US,LA
Sterlington,32.69625,-92.08597,US,LA
Stonewall,32.28183,-93.82407,US,LA
Sulphur,30.23659,-93.37738,US,LA
Sunset,30.41131,-92.06845,US,LA
Supreme,29.85937,-90.98121,US,LA
Swartz,32.56875,-91.98513,US,LA
Tallulah,32.40848,-91.18678,US,LA
Terrytown,29.91021,-90.03257,US,LA
Thibodaux,29.79576,-90.82287,US,LA
Timberlane,29.87743,-90.03202,US,LA
Urania,31.86378,-92.29597,US,LA
Varnado,30.8938,-89.82952,US,LA
Vidalia,31.56544,-91.42595,US,LA
Vienna Bend,31.73239,-93.041,US,LA
Village Saint George,30.36214,-91.06733,US,LA
Ville Platte,30.68797,-92.27152,US,LA
Vinton,30.19076,-93.58127,US,LA
Violet,29.89576,-89.89784,US,LA
Vivian,32.87153,-93.9874,US,LA
Waggaman,29.91854,-90.21091,US,LA
Walker,30.48797,-90.86149,US,LA
Watson,30.57574,-90.95316,US,LA
Welsh,30.23604,-92.82265,US,LA
West Ferriday,31.64044,-91.57318,US,LA
West Monroe,32.51848,-92.14764,US,LA
Westlake,30.24215,-93.25071,US,LA
Westwego,29.90604,-90.1423,US,LA
Westminster,30.4138,-91.0876,US,LA
White Castle,30.16992,-91.14705,US,LA
Winnfield,31.92558,-92.64131,US,LA
Winnsboro,32.16321,-91.72068,US,LA
Woodmere,29.85798,-90.08035,US,LA
Woodworth,31.14658,-92.49736,US,LA
Zachary,30.64852,-91.1565,US,LA
Youngsville,30.09965,-91.99012,US,LA
Zwolle,31.63156,-93.64407,US,LA
Aberdeen,39.50956,-76.16412,US,MD
Accokeek,38.66762,-77.02831,US,MD
Adamstown,39.31094,-77.47471,US,MD
Adelphi,39.00317,-76.97192,US,MD
Algonquin,38.5829,-76.10577,US,MD
Annapolis,38.97845,-76.49218,US,MD
Arbutus,39.25455,-76.69997,US,MD
Arden on the Severn,39.06594,-76.57885,US,MD
Arnold,39.03206,-76.50274,US,MD
Aspen Hill,39.07955,-77.07303,US,MD
Baden,38.65928,-76.77775,US,MD
Baltimore,39.29038,-76.61219,US,MD
Baltimore Highlands,39.23316,-76.63663,US,MD
Ballenger Creek,39.3726,-77.43526,US,MD
Bartonsville,39.3926,-77.35804,US,MD
Bel Air,39.53594,-76.34829,US,MD
Bel Air,39.57314,-78.84974,US,MD
Beltsville,39.03483,-76.90747,US,MD
Bennsville,38.60929,-77.0122,US,MD
Berlin,38.32262,-75.21769,US,MD
Berwyn Heights,38.994,-76.91053,US,MD
Bethesda,38.98067,-77.10026,US,MD
Bladensburg,38.93928,-76.93386,US,MD
Boonsboro,39.50621,-77.65249,US,MD
Bowie,38.94278,-76.73028,US,MD
Bowleys Quarters,39.33539,-76.39024,US,MD
Bowling Green,39.6237,-78.80446,US,MD
Braddock Heights,39.41871,-77.5036,US,MD
Brandywine,38.69678,-76.84775,US,MD
Brentwood,38.94317,-76.95664,US,MD
Brock Hall,38.85011,-76.76108,US,MD
Brooklyn Park,39.22844,-76.61636,US,MD
Brookmont,38.94206,-77.12026,US,MD
Brunswick,39.31427,-77.62777,US,MD
Bryans Road,38.62706,-77.07303,US,MD
Buckeystown,39.33482,-77.43165,US,MD
Burtonsville,39.11122,-76.93248,US,MD
Cabin John,38.97539,-77.15803,US,MD
California,38.3004,-76.50745,US,MD
Calverton,39.05761,-76.93581,US,MD
Cambridge,38.56317,-76.07883,US,MD
Camp Springs,38.804,-76.90664,US,MD
Cape Saint Claire,39.04317,-76.44496,US,MD
Capitol Heights,38.88511,-76.91581,US,MD
Carney,39.39427,-76.52358,US,MD
Catonsville,39.27205,-76.73192,US,MD
Cavetown,39.64426,-77.58582,US,MD
Centreville,39.04178,-76.06633,US,MD
Charlestown,39.26816,-76.70525,US,MD
Charlestown,39.57373,-75.97495,US,MD
Charlotte Hall,38.48096,-76.77802,US,MD
Chesapeake Beach,38.68623,-76.53468,US,MD
Chesapeake Ranch Estates,38.34624,-76.41773,US,MD
Chester,38.97539,-76.2894,US,MD
Chestertown,39.209,-76.06661,US,MD
Cheverly,38.92817,-76.91581,US,MD
Chevy Chase,39.00287,-77.07115,US,MD
Chevy Chase Village,38.96928,-77.07887,US,MD
Chillum,38.96372,-76.99081,US,MD
Clarksburg,39.23872,-77.27943,US,MD
Clover Hill,39.45621,-77.42887,US,MD
Cloverly,39.10816,-76.99775,US,MD
Clinton,38.76511,-76.89831,US,MD
Cockeysville,39.48122,-76.64386,US,MD
Colesville,39.07566,-77.00192,US,MD
College Park,38.98067,-76.93692,US,MD
Colmar Manor,38.93317,-76.94581,US,MD
Columbia,39.24038,-76.83942,US,MD
Coral Hills,38.87039,-76.92108,US,MD
Cottage City,38.93817,-76.94831,US,MD
Cresaptown,39.59287,-78.83335,US,MD
Crofton,39.00178,-76.68747,US,MD
Crisfield,37.98346,-75.85382,US,MD
Croom,38.75262,-76.76386,US,MD
Crownsville,39.02844,-76.60135,US,MD
Cumberland,39.65287,-78.76252,US,MD
Damascus,39.28844,-77.20387,US,MD
Darnestown,39.10344,-77.29082,US,MD
Davidsonville,38.92289,-76.6283,US,MD
Deale,38.77651,-76.55524,US,MD
Delmar,38.45595,-75.57742,US,MD
Denton,38.88456,-75.82716,US,MD
Derwood,39.11733,-77.16109,US,MD
